nord,east,alt,speed,vf,vl,vu,yaw,pitch,roll,af,al,au,wf,wl,wu,numsats,satellitesInView,profile,fixQuality,HDOP,timestamp,grabMsec,episode
59.9064685,30.350481,10.644,0.492,0.0,0.0,0.0,-5.236631782476975,0.0,0.0,0.0,0.0,0.0,0.0,0.0,0.0,14,43,0,4,0.8,2025-04-23T17: 13: 44.900+03: 00,35871,new.003.001.
59.9064687,30.3504803,10.641,0.424,0.0,0.0,0.0,-5.176697175963488,0.0,0.0,0.0,0.0,0.0,0.0,0.0,0.0,15,43,0,4,0.78,2025-04-23T17: 13: 45.000+03: 00,35986,new.003.001.
59.9064688,30.3504798,10.641,0.365,0.0,0.0,0.0,-5.165696365688169,0.0,0.0,0.0,0.0,0.0,0.0,0.0,0.0,15,43,0,4,0.78,2025-04-23T17: 13: 45.100+03: 00,36077,new.003.001.
59.906469,30.3504794,10.64,0.282,0.0,0.0,0.0,-5.286417299390113,0.0,0.0,0.0,0.0,0.0,0.0,0.0,0.0,15,43,0,4,0.78,2025-04-23T17: 13: 45.200+03: 00,36178,new.003.001.
59.906469,30.3504789,10.642,0.251,0.0,0.0,0.0,-5.043301661233563,0.0,0.0,0.0,0.0,0.0,0.0,0.0,0.0,15,43,0,4,0.78,2025-04-23T17: 13: 45.300+03: 00,36287,new.003.001.
59.9064691,30.3504786,10.646,0.18,0.0,0.0,0.0,-5.159870456645011,0.0,0.0,0.0,0.0,0.0,0.0,0.0,0.0,15,43,0,4,0.78,2025-04-23T17: 13: 45.400+03: 00,36377,new.003.001.
59.9064691,30.3504785,10.648,0.112,0.0,0.0,0.0,-5.159870456645011,0.0,0.0,0.0,0.0,0.0,0.0,0.0,0.0,15,43,0,4,0.78,2025-04-23T17: 13: 45.500+03: 00,36479,new.003.001.
59.9064692,30.3504784,10.65,0.072,0.0,0.0,0.0,-5.159870456645011,0.0,0.0,0.0,0.0,0.0,0.0,0.0,0.0,15,43,0,4,0.78,2025-04-23T17: 13: 45.600+03: 00,36578,new.003.001.
59.9064692,30.3504783,10.65,0.049,0.0,0.0,0.0,-5.159870456645011,0.0,0.0,0.0,0.0,0.0,0.0,0.0,0.0,15,43,0,4,0.78,2025-04-23T17: 13: 45.700+03: 00,36676,new.003.001.
59.9064691,30.3504784,10.65,0.023,0.0,0.0,0.0,-5.159870456645011,0.0,0.0,0.0,0.0,0.0,0.0,0.0,0.0,15,43,0,4,0.78,2025-04-23T17: 13: 45.800+03: 00,36777,new.003.001.
59.9064691,30.3504785,10.652,0.064,0.0,0.0,0.0,-5.159870456645011,0.0,0.0,0.0,0.0,0.0,0.0,0.0,0.0,15,43,0,4,0.78,2025-04-23T17: 13: 45.900+03: 00,36878,new.003.001.
59.9064691,30.3504787,10.65,0.115,0.0,0.0,0.0,-5.159870456645011,0.0,0.0,0.0,0.0,0.0,0.0,0.0,0.0,17,43,0,4,0.78,2025-04-23T17: 13: 46.000+03: 00,36983,new.003.001.
59.9064691,30.3504787,10.651,0.019,0.0,0.0,0.0,-5.159870456645011,0.0,0.0,0.0,0.0,0.0,0.0,0.0,0.0,17,43,0,4,0.78,2025-04-23T17: 13: 46.100+03: 00,37079,new.003.001.
59.906469,30.3504788,10.65,0.06,0.0,0.0,0.0,-5.159870456645011,0.0,0.0,0.0,0.0,0.0,0.0,0.0,0.0,17,43,0,4,0.78,2025-04-23T17: 13: 46.200+03: 00,37180,new.003.001.
59.9064691,30.3504787,10.651,0.047,0.0,0.0,0.0,-5.159870456645011,0.0,0.0,0.0,0.0,0.0,0.0,0.0,0.0,17,43,0,4,0.78,2025-04-23T17: 13: 46.300+03: 00,37279,new.003.001.
59.9064691,30.3504787,10.649,0.063,0.0,0.0,0.0,-5.159870456645011,0.0,0.0,0.0,0.0,0.0,0.0,0.0,0.0,17,43,0,4,0.78,2025-04-23T17: 13: 46.400+03: 00,37382,new.003.001.
59.9064691,30.3504786,10.65,0.057,0.0,0.0,0.0,-5.159870456645011,0.0,0.0,0.0,0.0,0.0,0.0,0.0,0.0,17,43,0,4,0.78,2025-04-23T17: 13: 46.500+03: 00,37493,new.003.001.
59.9064691,30.3504786,10.647,0.024,0.0,0.0,0.0,-5.159870456645011,0.0,0.0,0.0,0.0,0.0,0.0,0.0,0.0,17,43,0,4,0.78,2025-04-23T17: 13: 46.600+03: 00,37579,new.003.001.
59.9064691,30.3504786,10.649,0.021,0.0,0.0,0.0,-5.159870456645011,0.0,0.0,0.0,0.0,0.0,0.0,0.0,0.0,17,43,0,4,0.78,2025-04-23T17: 13: 46.700+03: 00,37676,new.003.001.
59.9064691,30.3504786,10.649,0.033,0.0,0.0,0.0,-5.159870456645011,0.0,0.0,0.0,0.0,0.0,0.0,0.0,0.0,17,43,0,4,0.78,2025-04-23T17: 13: 46.800+03: 00,37779,new.003.001.
59.9064691,30.3504786,10.651,0.041,0.0,0.0,0.0,-5.159870456645011,0.0,0.0,0.0,0.0,0.0,0.0,0.0,0.0,17,43,0,4,0.78,2025-04-23T17: 13: 46.900+03: 00,37878,new.003.001.
59.9064691,30.3504788,10.651,0.062,0.0,0.0,0.0,-5.159870456645011,0.0,0.0,0.0,0.0,0.0,0.0,0.0,0.0,17,43,0,4,0.78,2025-04-23T17: 13: 47.000+03: 00,37987,new.003.001.
59.9064691,30.3504788,10.649,0.014,0.0,0.0,0.0,-5.159870456645011,0.0,0.0,0.0,0.0,0.0,0.0,0.0,0.0,17,43,0,4,0.78,2025-04-23T17: 13: 47.100+03: 00,38078,new.003.001.
59.9064691,30.3504788,10.647,0.017,0.0,0.0,0.0,-5.159870456645011,0.0,0.0,0.0,0.0,0.0,0.0,0.0,0.0,17,43,0,4,0.78,2025-04-23T17: 13: 47.200+03: 00,38182,new.003.001.
59.9064691,30.3504787,10.65,0.035,0.0,0.0,0.0,-5.159870456645011,0.0,0.0,0.0,0.0,0.0,0.0,0.0,0.0,17,43,0,4,0.78,2025-04-23T17: 13: 47.300+03: 00,38287,new.003.001.
59.9064691,30.3504786,10.648,0.02,0.0,0.0,0.0,-5.159870456645011,0.0,0.0,0.0,0.0,0.0,0.0,0.0,0.0,17,43,0,4,0.78,2025-04-23T17: 13: 47.400+03: 00,38382,new.003.001.
59.9064691,30.3504786,10.649,0.007,0.0,0.0,0.0,-5.159870456645011,0.0,0.0,0.0,0.0,0.0,0.0,0.0,0.0,17,43,0,4,0.78,2025-04-23T17: 13: 47.500+03: 00,38478,new.003.001.
59.9064691,30.3504787,10.648,0.013,0.0,0.0,0.0,-5.159870456645011,0.0,0.0,0.0,0.0,0.0,0.0,0.0,0.0,17,43,0,4,0.78,2025-04-23T17: 13: 47.600+03: 00,38573,new.003.001.
59.9064691,30.3504786,10.649,0.024,0.0,0.0,0.0,-5.159870456645011,0.0,0.0,0.0,0.0,0.0,0.0,0.0,0.0,17,43,0,4,0.78,2025-04-23T17: 13: 47.700+03: 00,38677,new.003.001.
59.9064691,30.3504787,10.647,0.018,0.0,0.0,0.0,-5.159870456645011,0.0,0.0,0.0,0.0,0.0,0.0,0.0,0.0,17,43,0,4,0.78,2025-04-23T17: 13: 47.800+03: 00,38780,new.003.001.
59.9064691,30.3504786,10.648,0.004,0.0,0.0,0.0,-5.159870456645011,0.0,0.0,0.0,0.0,0.0,0.0,0.0,0.0,17,43,0,4,0.78,2025-04-23T17: 13: 47.900+03: 00,38876,new.003.001.
59.9064691,30.3504787,10.645,0.014,0.0,0.0,0.0,-5.159870456645011,0.0,0.0,0.0,0.0,0.0,0.0,0.0,0.0,17,43,0,4,0.78,2025-04-23T17: 13: 48.000+03: 00,38989,new.003.001.
59.906469,30.3504787,10.643,0.018,0.0,0.0,0.0,-5.159870456645011,0.0,0.0,0.0,0.0,0.0,0.0,0.0,0.0,17,43,0,4,0.78,2025-04-23T17: 13: 48.100+03: 00,39076,new.003.001.
59.906469,30.3504788,10.645,0.027,0.0,0.0,0.0,-5.159870456645011,0.0,0.0,0.0,0.0,0.0,0.0,0.0,0.0,17,43,0,4,0.78,2025-04-23T17: 13: 48.200+03: 00,39177,new.003.001.
59.906469,30.3504788,10.648,0.012,0.0,0.0,0.0,-5.159870456645011,0.0,0.0,0.0,0.0,0.0,0.0,0.0,0.0,17,43,0,4,0.78,2025-04-23T17: 13: 48.300+03: 00,39277,new.003.001.
59.906469,30.3504787,10.65,0.004,0.0,0.0,0.0,-5.159870456645011,0.0,0.0,0.0,0.0,0.0,0.0,0.0,0.0,17,43,0,4,0.78,2025-04-23T17: 13: 48.400+03: 00,39378,new.003.001.
59.906469,30.3504786,10.654,0.037,0.0,0.0,0.0,-5.159870456645011,0.0,0.0,0.0,0.0,0.0,0.0,0.0,0.0,17,43,0,4,0.78,2025-04-23T17: 13: 48.500+03: 00,39478,new.003.001.
59.9064691,30.3504784,10.657,0.071,0.0,0.0,0.0,-5.159870456645011,0.0,0.0,0.0,0.0,0.0,0.0,0.0,0.0,17,43,0,4,0.78,2025-04-23T17: 13: 48.600+03: 00,39578,new.003.001.
59.9064691,30.3504783,10.663,0.115,0.0,0.0,0.0,-5.159870456645011,0.0,0.0,0.0,0.0,0.0,0.0,0.0,0.0,17,43,0,4,0.78,2025-04-23T17: 13: 48.700+03: 00,39676,new.003.001.
59.9064692,30.350478,10.666,0.154,0.0,0.0,0.0,-5.092752074930318,0.0,0.0,0.0,0.0,0.0,0.0,0.0,0.0,17,43,0,4,0.78,2025-04-23T17: 13: 48.800+03: 00,39778,new.003.001.
59.9064693,30.3504776,10.671,0.23,0.0,0.0,0.0,-5.226226129476585,0.0,0.0,0.0,0.0,0.0,0.0,0.0,0.0,17,43,0,4,0.78,2025-04-23T17: 13: 48.900+03: 00,39875,new.003.001.
59.9064694,30.3504772,10.675,0.245,0.0,0.0,0.0,-5.25920587102227,0.0,0.0,0.0,0.0,0.0,0.0,0.0,0.0,16,43,0,4,0.78,2025-04-23T17: 13: 49.000+03: 00,39985,new.003.001.
59.9064695,30.3504766,10.678,0.317,0.0,0.0,0.0,-5.008621968996435,0.0,0.0,0.0,0.0,0.0,0.0,0.0,0.0,16,43,0,4,0.78,2025-04-23T17: 13: 49.100+03: 00,40077,new.003.001.
59.9064696,30.3504759,10.681,0.409,0.0,0.0,0.0,-5.068711909813348,0.0,0.0,0.0,0.0,0.0,0.0,0.0,0.0,16,43,0,4,0.78,2025-04-23T17: 13: 49.200+03: 00,40180,new.003.001.
59.9064699,30.3504752,10.68,0.502,0.0,0.0,0.0,-5.281034703976962,0.0,0.0,0.0,0.0,0.0,0.0,0.0,0.0,16,43,0,4,0.78,2025-04-23T17: 13: 49.300+03: 00,40285,new.003.001.
59.9064701,30.3504741,10.685,0.578,0.0,0.0,0.0,-5.2122896753994095,0.0,0.0,0.0,0.0,0.0,0.0,0.0,0.0,16,43,0,4,0.78,2025-04-23T17: 13: 49.400+03: 00,40376,new.003.001.
59.9064704,30.3504728,10.684,0.797,0.0,0.0,0.0,-5.118324639130539,0.0,0.0,0.0,0.0,0.0,0.0,0.0,0.0,16,43,0,4,0.78,2025-04-23T17: 13: 49.500+03: 00,40481,new.003.001.
59.9064707,30.3504716,10.682,0.743,0.0,0.0,0.0,-5.149133191086742,0.0,0.0,0.0,0.0,0.0,0.0,0.0,0.0,16,43,0,4,0.78,2025-04-23T17: 13: 49.600+03: 00,40579,new.003.001.
59.906471,30.3504699,10.683,0.948,0.0,0.0,0.0,-5.128557504534982,0.0,0.0,0.0,0.0,0.0,0.0,0.0,0.0,16,43,0,4,0.78,2025-04-23T17: 13: 49.700+03: 00,40676,new.003.001.
59.9064715,30.3504684,10.681,1.006,0.0,0.0,0.0,-5.150030290322268,0.0,0.0,0.0,0.0,0.0,0.0,0.0,0.0,16,43,0,4,0.78,2025-04-23T17: 13: 49.800+03: 00,40775,new.003.001.
59.9064719,30.3504668,10.678,1.051,0.0,0.0,0.0,-5.163738106267432,0.0,0.0,0.0,0.0,0.0,0.0,0.0,0.0,16,43,0,4,0.78,2025-04-23T17: 13: 49.900+03: 00,40874,new.003.001.
59.9064723,30.350465,10.685,1.041,0.0,0.0,0.0,-5.180364112721929,0.0,0.0,0.0,0.0,0.0,0.0,0.0,0.0,16,43,0,4,0.78,2025-04-23T17: 13: 50.000+03: 00,40986,new.003.001.
59.9064728,30.3504631,10.687,1.175,0.0,0.0,0.0,-5.224939821817865,0.0,0.0,0.0,0.0,0.0,0.0,0.0,0.0,16,43,0,4,0.78,2025-04-23T17: 13: 50.100+03: 00,41078,new.003.001.
59.9064733,30.3504613,10.688,1.172,0.0,0.0,0.0,-5.216565732066796,0.0,0.0,0.0,0.0,0.0,0.0,0.0,0.0,16,43,0,4,0.78,2025-04-23T17: 13: 50.200+03: 00,41177,new.003.001.
59.9064737,30.3504593,10.685,1.196,0.0,0.0,0.0,-5.117591600844702,0.0,0.0,0.0,0.0,0.0,0.0,0.0,0.0,16,43,0,4,0.78,2025-04-23T17: 13: 50.300+03: 00,41276,new.003.001.
59.9064742,30.3504572,10.69,1.254,0.0,0.0,0.0,-5.154185919271267,0.0,0.0,0.0,0.0,0.0,0.0,0.0,0.0,16,43,0,4,0.78,2025-04-23T17: 13: 50.400+03: 00,41381,new.003.001.
59.9064747,30.3504553,10.685,1.26,0.0,0.0,0.0,-5.1894991660268674,0.0,0.0,0.0,0.0,0.0,0.0,0.0,0.0,16,43,0,4,0.78,2025-04-23T17: 13: 50.500+03: 00,41498,new.003.001.
59.9064752,30.3504531,10.685,1.373,0.0,0.0,0.0,-5.160158435971591,0.0,0.0,0.0,0.0,0.0,0.0,0.0,0.0,16,43,0,4,0.78,2025-04-23T17: 13: 50.600+03: 00,41577,new.003.001.
59.9064758,30.3504509,10.684,1.362,0.0,0.0,0.0,-5.15549317088101,0.0,0.0,0.0,0.0,0.0,0.0,0.0,0.0,16,43,0,4,0.78,2025-04-23T17: 13: 50.700+03: 00,41677,new.003.001.
59.9064764,30.3504486,10.683,1.408,0.0,0.0,0.0,-5.188085449332752,0.0,0.0,0.0,0.0,0.0,0.0,0.0,0.0,16,43,0,4,0.78,2025-04-23T17: 13: 50.800+03: 00,41775,new.003.001.
59.906477,30.3504462,10.683,1.482,0.0,0.0,0.0,-5.1470789385571445,0.0,0.0,0.0,0.0,0.0,0.0,0.0,0.0,16,43,0,4,0.78,2025-04-23T17: 13: 50.900+03: 00,41880,new.003.001.
59.9064776,30.3504438,10.684,1.492,0.0,0.0,0.0,-5.227301252295812,0.0,0.0,0.0,0.0,0.0,0.0,0.0,0.0,16,43,0,4,0.78,2025-04-23T17: 13: 51.000+03: 00,41985,new.003.001.
59.9064782,30.3504412,10.684,1.564,0.0,0.0,0.0,-5.142914582961887,0.0,0.0,0.0,0.0,0.0,0.0,0.0,0.0,16,43,0,4,0.78,2025-04-23T17: 13: 51.100+03: 00,42078,new.003.001.
59.9064789,30.3504387,10.687,1.604,0.0,0.0,0.0,-5.154220825856306,0.0,0.0,0.0,0.0,0.0,0.0,0.0,0.0,16,43,0,4,0.78,2025-04-23T17: 13: 51.200+03: 00,42174,new.003.001.
59.9064795,30.350436,10.685,1.597,0.0,0.0,0.0,-5.1593503485279175,0.0,0.0,0.0,0.0,0.0,0.0,0.0,0.0,16,43,0,4,0.78,2025-04-23T17: 13: 51.300+03: 00,42287,new.003.001.
59.9064802,30.3504334,10.685,1.663,0.0,0.0,0.0,-5.201414528830233,0.0,0.0,0.0,0.0,0.0,0.0,0.0,0.0,16,43,0,4,0.78,2025-04-23T17: 13: 51.400+03: 00,42375,new.003.001.
59.9064808,30.3504308,10.684,1.637,0.0,0.0,0.0,-5.152063598900842,0.0,0.0,0.0,0.0,0.0,0.0,0.0,0.0,16,43,0,4,0.78,2025-04-23T17: 13: 51.500+03: 00,42478,new.003.001.
59.9064815,30.3504283,10.686,1.612,0.0,0.0,0.0,-5.172424609954606,0.0,0.0,0.0,0.0,0.0,0.0,0.0,0.0,16,43,0,4,0.78,2025-04-23T17: 13: 51.600+03: 00,42574,new.003.001.
59.9064821,30.3504258,10.693,1.557,0.0,0.0,0.0,-5.169729821589528,0.0,0.0,0.0,0.0,0.0,0.0,0.0,0.0,16,43,0,4,0.78,2025-04-23T17: 13: 51.700+03: 00,42673,new.003.001.
59.9064826,30.3504235,10.686,1.426,0.0,0.0,0.0,-5.155028913299979,0.0,0.0,0.0,0.0,0.0,0.0,0.0,0.0,16,43,0,4,0.78,2025-04-23T17: 13: 51.800+03: 00,42776,new.003.001.
59.9064831,30.3504214,10.69,1.353,0.0,0.0,0.0,-5.190748821771296,0.0,0.0,0.0,0.0,0.0,0.0,0.0,0.0,16,43,0,4,0.78,2025-04-23T17: 13: 51.900+03: 00,42873,new.003.001.
59.9064836,30.3504194,10.691,1.227,0.0,0.0,0.0,-5.141928471934509,0.0,0.0,0.0,0.0,0.0,0.0,0.0,0.0,16,43,0,4,0.8,2025-04-23T17: 13: 52.000+03: 00,42982,new.003.001.
59.906484,30.3504175,10.69,1.165,0.0,0.0,0.0,-5.106685038348989,0.0,0.0,0.0,0.0,0.0,0.0,0.0,0.0,16,43,0,4,0.8,2025-04-23T17: 13: 52.100+03: 00,43074,new.003.001.
59.9064845,30.3504159,10.693,1.065,0.0,0.0,0.0,-5.266213367969026,0.0,0.0,0.0,0.0,0.0,0.0,0.0,0.0,16,43,0,4,0.8,2025-04-23T17: 13: 52.200+03: 00,43183,new.003.001.
59.906485,30.3504143,10.696,1.047,0.0,0.0,0.0,-5.223794885828556,0.0,0.0,0.0,0.0,0.0,0.0,0.0,0.0,16,43,0,4,0.8,2025-04-23T17: 13: 52.300+03: 00,43286,new.003.001.
59.9064852,30.3504127,10.696,0.963,0.0,0.0,0.0,-5.1141916994618155,0.0,0.0,0.0,0.0,0.0,0.0,0.0,0.0,16,43,0,4,0.8,2025-04-23T17: 13: 52.400+03: 00,43379,new.003.001.
59.9064855,30.350411,10.701,0.957,0.0,0.0,0.0,-5.1144203375938275,0.0,0.0,0.0,0.0,0.0,0.0,0.0,0.0,16,43,0,4,0.8,2025-04-23T17: 13: 52.500+03: 00,43490,new.003.001.
59.9064859,30.3504096,10.697,0.914,0.0,0.0,0.0,-5.13091020836667,0.0,0.0,0.0,0.0,0.0,0.0,0.0,0.0,16,43,0,4,0.8,2025-04-23T17: 13: 52.600+03: 00,43575,new.003.001.
59.9064863,30.3504079,10.698,1.012,0.0,0.0,0.0,-5.154636214218281,0.0,0.0,0.0,0.0,0.0,0.0,0.0,0.0,16,43,0,4,0.8,2025-04-23T17: 13: 52.700+03: 00,43678,new.003.001.
59.9064867,30.3504063,10.702,1.009,0.0,0.0,0.0,-5.1508383777659414,0.0,0.0,0.0,0.0,0.0,0.0,0.0,0.0,16,43,0,4,0.8,2025-04-23T17: 13: 52.800+03: 00,43780,new.003.001.
59.9064872,30.3504047,10.702,1.044,0.0,0.0,0.0,-5.18941364489352,0.0,0.0,0.0,0.0,0.0,0.0,0.0,0.0,16,43,0,4,0.8,2025-04-23T17: 13: 52.900+03: 00,43873,new.003.001.
59.9064876,30.350403,10.7,1.128,0.0,0.0,0.0,-5.193078836322708,0.0,0.0,0.0,0.0,0.0,0.0,0.0,0.0,16,43,0,4,0.8,2025-04-23T17: 13: 53.000+03: 00,43977,new.003.001.
59.9064881,30.3504011,10.706,1.179,0.0,0.0,0.0,-5.230301473279991,0.0,0.0,0.0,0.0,0.0,0.0,0.0,0.0,16,43,0,4,0.8,2025-04-23T17: 13: 53.100+03: 00,44076,new.003.001.
59.9064885,30.3503989,10.705,1.266,0.0,0.0,0.0,-5.120661634998958,0.0,0.0,0.0,0.0,0.0,0.0,0.0,0.0,16,43,0,4,0.8,2025-04-23T17: 13: 53.200+03: 00,44175,new.003.001.
59.9064891,30.3503967,10.707,1.397,0.0,0.0,0.0,-5.186491963725682,0.0,0.0,0.0,0.0,0.0,0.0,0.0,0.0,16,43,0,4,0.8,2025-04-23T17: 13: 53.300+03: 00,44275,new.003.001.
59.9064897,30.3503942,10.709,1.539,0.0,0.0,0.0,-5.155505388185773,0.0,0.0,0.0,0.0,0.0,0.0,0.0,0.0,16,43,0,4,0.8,2025-04-23T17: 13: 53.400+03: 00,44381,new.003.001.
59.9064904,30.3503915,10.711,1.62,0.0,0.0,0.0,-5.1573659091684,0.0,0.0,0.0,0.0,0.0,0.0,0.0,0.0,16,43,0,4,0.8,2025-04-23T17: 13: 53.500+03: 00,44476,new.003.001.
59.9064911,30.3503887,10.712,1.752,0.0,0.0,0.0,-5.1615930966167305,0.0,0.0,0.0,0.0,0.0,0.0,0.0,0.0,16,43,0,4,0.8,2025-04-23T17: 13: 53.600+03: 00,44580,new.003.001.
59.9064918,30.3503856,10.712,1.893,0.0,0.0,0.0,-5.165630043176593,0.0,0.0,0.0,0.0,0.0,0.0,0.0,0.0,16,43,0,4,0.8,2025-04-23T17: 13: 53.700+03: 00,44674,new.003.001.
59.9064926,30.3503823,10.712,1.992,0.0,0.0,0.0,-5.147515270870144,0.0,0.0,0.0,0.0,0.0,0.0,0.0,0.0,16,43,0,4,0.8,2025-04-23T17: 13: 53.800+03: 00,44775,new.003.001.
59.9064936,30.3503788,10.713,2.163,0.0,0.0,0.0,-5.181566644576553,0.0,0.0,0.0,0.0,0.0,0.0,0.0,0.0,16,43,0,4,0.8,2025-04-23T17: 13: 53.900+03: 00,44875,new.003.001.
59.9064944,30.3503751,10.715,2.272,0.0,0.0,0.0,-5.1610607711948715,0.0,0.0,0.0,0.0,0.0,0.0,0.0,0.0,18,43,0,4,0.78,2025-04-23T17: 13: 54.000+03: 00,44982,new.003.001.
59.9064953,30.3503713,10.716,2.381,0.0,0.0,0.0,-5.144277685107695,0.0,0.0,0.0,0.0,0.0,0.0,0.0,0.0,18,43,0,4,0.78,2025-04-23T17: 13: 54.100+03: 00,45082,new.003.001.
59.9064963,30.3503673,10.718,2.497,0.0,0.0,0.0,-5.179645037070107,0.0,0.0,0.0,0.0,0.0,0.0,0.0,0.0,18,43,0,4,0.78,2025-04-23T17: 13: 54.200+03: 00,45177,new.003.001.
59.9064973,30.350363,10.719,2.59,0.0,0.0,0.0,-5.164244251750509,0.0,0.0,0.0,0.0,0.0,0.0,0.0,0.0,18,43,0,4,0.78,2025-04-23T17: 13: 54.300+03: 00,45281,new.003.001.
59.9064984,30.3503587,10.723,2.719,0.0,0.0,0.0,-5.1675289614027635,0.0,0.0,0.0,0.0,0.0,0.0,0.0,0.0,18,43,0,4,0.78,2025-04-23T17: 13: 54.400+03: 00,45382,new.003.001.
59.9064995,30.3503541,10.728,2.811,0.0,0.0,0.0,-5.16592500382018,0.0,0.0,0.0,0.0,0.0,0.0,0.0,0.0,18,43,0,4,0.78,2025-04-23T17: 13: 54.500+03: 00,45491,new.003.001.
59.9065006,30.3503493,10.731,2.931,0.0,0.0,0.0,-5.155423357710931,0.0,0.0,0.0,0.0,0.0,0.0,0.0,0.0,18,43,0,4,0.78,2025-04-23T17: 13: 54.600+03: 00,45577,new.003.001.
59.9065018,30.3503443,10.733,3.071,0.0,0.0,0.0,-5.149391499816039,0.0,0.0,0.0,0.0,0.0,0.0,0.0,0.0,18,43,0,4,0.78,2025-04-23T17: 13: 54.700+03: 00,45674,new.003.001.
59.9065031,30.3503392,10.737,3.172,0.0,0.0,0.0,-5.175632525119773,0.0,0.0,0.0,0.0,0.0,0.0,0.0,0.0,18,43,0,4,0.78,2025-04-23T17: 13: 54.800+03: 00,45768,new.003.001.
59.9065044,30.3503339,10.737,3.271,0.0,0.0,0.0,-5.157772570884115,0.0,0.0,0.0,0.0,0.0,0.0,0.0,0.0,18,43,0,4,0.78,2025-04-23T17: 13: 54.900+03: 00,45884,new.003.001.
59.9065057,30.3503283,10.742,3.351,0.0,0.0,0.0,-5.1621044780875645,0.0,0.0,0.0,0.0,0.0,0.0,0.0,0.0,19,43,0,4,0.65,2025-04-23T17: 13: 55.000+03: 00,45981,new.003.001.
59.9065071,30.3503228,10.744,3.496,0.0,0.0,0.0,-5.154274931063118,0.0,0.0,0.0,0.0,0.0,0.0,0.0,0.0,19,43,0,4,0.65,2025-04-23T17: 13: 55.100+03: 00,46078,new.003.002.
59.9065084,30.350317,10.748,3.595,0.0,0.0,0.0,-5.164170947921925,0.0,0.0,0.0,0.0,0.0,0.0,0.0,0.0,19,43,0,4,0.65,2025-04-23T17: 13: 55.200+03: 00,46178,new.003.002.
59.9065099,30.3503109,10.747,3.707,0.0,0.0,0.0,-5.1591060024326385,0.0,0.0,0.0,0.0,0.0,0.0,0.0,0.0,19,43,0,4,0.65,2025-04-23T17: 13: 55.300+03: 00,46285,new.003.002.
59.9065114,30.3503047,10.746,3.842,0.0,0.0,0.0,-5.16880479708597,0.0,0.0,0.0,0.0,0.0,0.0,0.0,0.0,19,43,0,4,0.65,2025-04-23T17: 13: 55.400+03: 00,46383,new.003.002.
59.9065129,30.3502983,10.747,3.946,0.0,0.0,0.0,-5.155161558323131,0.0,0.0,0.0,0.0,0.0,0.0,0.0,0.0,19,43,0,4,0.65,2025-04-23T17: 13: 55.500+03: 00,46477,new.003.002.
59.9065145,30.3502918,10.746,4.025,0.0,0.0,0.0,-5.156355363531495,0.0,0.0,0.0,0.0,0.0,0.0,0.0,0.0,19,43,0,4,0.65,2025-04-23T17: 13: 55.600+03: 00,46578,new.003.002.
59.9065161,30.3502851,10.742,4.169,0.0,0.0,0.0,-5.150215295222979,0.0,0.0,0.0,0.0,0.0,0.0,0.0,0.0,19,43,0,4,0.65,2025-04-23T17: 13: 55.700+03: 00,46671,new.003.002.
59.9065178,30.3502782,10.742,4.268,0.0,0.0,0.0,-5.171023110565256,0.0,0.0,0.0,0.0,0.0,0.0,0.0,0.0,19,43,0,4,0.65,2025-04-23T17: 13: 55.800+03: 00,46780,new.003.002.
59.9065195,30.3502712,10.743,4.354,0.0,0.0,0.0,-5.160985722037036,0.0,0.0,0.0,0.0,0.0,0.0,0.0,0.0,19,43,0,4,0.65,2025-04-23T17: 13: 55.900+03: 00,46876,new.003.002.
59.9065212,30.3502639,10.742,4.481,0.0,0.0,0.0,-5.165136114998278,0.0,0.0,0.0,0.0,0.0,0.0,0.0,0.0,14,43,0,4,0.65,2025-04-23T17: 13: 56.000+03: 00,46982,new.003.002.
59.9065231,30.3502566,10.738,4.594,0.0,0.0,0.0,-5.15929973397961,0.0,0.0,0.0,0.0,0.0,0.0,0.0,0.0,14,43,0,4,0.65,2025-04-23T17: 13: 56.100+03: 00,47081,new.003.002.
59.9065249,30.350249,10.737,4.669,0.0,0.0,0.0,-5.170681026031864,0.0,0.0,0.0,0.0,0.0,0.0,0.0,0.0,14,43,0,4,0.65,2025-04-23T17: 13: 56.200+03: 00,47176,new.003.002.
59.9065267,30.3502412,10.739,4.767,0.0,0.0,0.0,-5.159643563842253,0.0,0.0,0.0,0.0,0.0,0.0,0.0,0.0,14,43,0,4,0.65,2025-04-23T17: 13: 56.300+03: 00,47276,new.003.002.
59.9065287,30.3502333,10.736,4.903,0.0,0.0,0.0,-5.162539065071311,0.0,0.0,0.0,0.0,0.0,0.0,0.0,0.0,14,43,0,4,0.65,2025-04-23T17: 13: 56.400+03: 00,47383,new.003.002.
59.9065307,30.3502252,10.736,5.023,0.0,0.0,0.0,-5.165668440420137,0.0,0.0,0.0,0.0,0.0,0.0,0.0,0.0,14,43,0,4,0.65,2025-04-23T17: 13: 56.500+03: 00,47481,new.003.002.
59.9065327,30.3502169,10.734,5.145,0.0,0.0,0.0,-5.1655462673724974,0.0,0.0,0.0,0.0,0.0,0.0,0.0,0.0,14,43,0,4,0.65,2025-04-23T17: 13: 56.600+03: 00,47570,new.003.002.
59.9065349,30.3502085,10.733,5.246,0.0,0.0,0.0,-5.17670590260975,0.0,0.0,0.0,0.0,0.0,0.0,0.0,0.0,14,43,0,4,0.65,2025-04-23T17: 13: 56.700+03: 00,47675,new.003.002.
59.906537,30.3501998,10.732,5.361,0.0,0.0,0.0,-5.16915386293637,0.0,0.0,0.0,0.0,0.0,0.0,0.0,0.0,14,43,0,4,0.65,2025-04-23T17: 13: 56.800+03: 00,47774,new.003.002.
59.9065391,30.350191,10.734,5.46,0.0,0.0,0.0,-5.163142948992501,0.0,0.0,0.0,0.0,0.0,0.0,0.0,0.0,14,43,0,4,0.65,2025-04-23T17: 13: 56.900+03: 00,47876,new.003.002.
59.9065413,30.350182,10.733,5.562,0.0,0.0,0.0,-5.166221709793019,0.0,0.0,0.0,0.0,0.0,0.0,0.0,0.0,17,43,0,4,0.67,2025-04-23T17: 13: 57.000+03: 00,47987,new.003.002.
59.9065435,30.3501728,10.737,5.694,0.0,0.0,0.0,-5.166019251599788,0.0,0.0,0.0,0.0,0.0,0.0,0.0,0.0,17,43,0,4,0.67,2025-04-23T17: 13: 57.100+03: 00,48080,new.003.002.
59.9065458,30.3501635,10.74,5.76,0.0,0.0,0.0,-5.155175520957147,0.0,0.0,0.0,0.0,0.0,0.0,0.0,0.0,17,43,0,4,0.67,2025-04-23T17: 13: 57.200+03: 00,48181,new.003.002.
59.906548,30.3501539,10.746,5.88,0.0,0.0,0.0,-5.151145555714292,0.0,0.0,0.0,0.0,0.0,0.0,0.0,0.0,17,43,0,4,0.67,2025-04-23T17: 13: 57.300+03: 00,48288,new.003.002.
59.9065504,30.3501442,10.753,5.995,0.0,0.0,0.0,-5.1581582886488055,0.0,0.0,0.0,0.0,0.0,0.0,0.0,0.0,17,43,0,4,0.67,2025-04-23T17: 13: 57.400+03: 00,48383,new.003.002.
59.9065527,30.3501345,10.753,6.039,0.0,0.0,0.0,-5.159067605189095,0.0,0.0,0.0,0.0,0.0,0.0,0.0,0.0,17,43,0,4,0.67,2025-04-23T17: 13: 57.500+03: 00,48478,new.003.002.
59.9065551,30.3501246,10.759,6.146,0.0,0.0,0.0,-5.1568178757832746,0.0,0.0,0.0,0.0,0.0,0.0,0.0,0.0,17,43,0,4,0.67,2025-04-23T17: 13: 57.600+03: 00,48578,new.003.002.
59.9065576,30.3501144,10.763,6.257,0.0,0.0,0.0,-5.163762540876959,0.0,0.0,0.0,0.0,0.0,0.0,0.0,0.0,17,43,0,4,0.67,2025-04-23T17: 13: 57.700+03: 00,48678,new.003.002.
59.9065601,30.3501043,10.767,6.309,0.0,0.0,0.0,-5.169131173656094,0.0,0.0,0.0,0.0,0.0,0.0,0.0,0.0,17,43,0,4,0.67,2025-04-23T17: 13: 57.800+03: 00,48781,new.003.002.
59.9065626,30.3500941,10.77,6.341,0.0,0.0,0.0,-5.162978888042813,0.0,0.0,0.0,0.0,0.0,0.0,0.0,0.0,17,43,0,4,0.67,2025-04-23T17: 13: 57.900+03: 00,48885,new.003.002.
59.9065651,30.3500838,10.775,6.418,0.0,0.0,0.0,-5.163354133831992,0.0,0.0,0.0,0.0,0.0,0.0,0.0,0.0,19,43,0,4,0.6,2025-04-23T17: 13: 58.000+03: 00,48986,new.003.002.
59.9065676,30.3500733,10.78,6.456,0.0,0.0,0.0,-5.157898234590259,0.0,0.0,0.0,0.0,0.0,0.0,0.0,0.0,19,43,0,4,0.6,2025-04-23T17: 13: 58.100+03: 00,49083,new.003.002.
59.9065702,30.3500629,10.78,6.469,0.0,0.0,0.0,-5.171300617916322,0.0,0.0,0.0,0.0,0.0,0.0,0.0,0.0,19,43,0,4,0.6,2025-04-23T17: 13: 58.200+03: 00,49182,new.003.002.
59.9065727,30.3500523,10.788,6.495,0.0,0.0,0.0,-5.159919325864067,0.0,0.0,0.0,0.0,0.0,0.0,0.0,0.0,19,43,0,4,0.6,2025-04-23T17: 13: 58.300+03: 00,49282,new.003.002.
59.9065752,30.3500416,10.791,6.626,0.0,0.0,0.0,-5.147049267959861,0.0,0.0,0.0,0.0,0.0,0.0,0.0,0.0,19,43,0,4,0.6,2025-04-23T17: 13: 58.400+03: 00,49376,new.003.002.
59.9065777,30.3500309,10.797,6.646,0.0,0.0,0.0,-5.14597239981138,0.0,0.0,0.0,0.0,0.0,0.0,0.0,0.0,19,43,0,4,0.6,2025-04-23T17: 13: 58.500+03: 00,49491,new.003.002.
59.9065803,30.3500202,10.799,6.633,0.0,0.0,0.0,-5.161909001211342,0.0,0.0,0.0,0.0,0.0,0.0,0.0,0.0,19,43,0,4,0.6,2025-04-23T17: 13: 58.600+03: 00,49583,new.003.002.
59.9065829,30.3500093,10.802,6.722,0.0,0.0,0.0,-5.156170358630784,0.0,0.0,0.0,0.0,0.0,0.0,0.0,0.0,19,43,0,4,0.6,2025-04-23T17: 13: 58.700+03: 00,49681,new.003.002.
59.9065856,30.3499984,10.803,6.779,0.0,0.0,0.0,-5.15895939477547,0.0,0.0,0.0,0.0,0.0,0.0,0.0,0.0,19,43,0,4,0.6,2025-04-23T17: 13: 58.800+03: 00,49790,new.003.002.
59.9065882,30.3499874,10.8,6.79,0.0,0.0,0.0,-5.162441326633199,0.0,0.0,0.0,0.0,0.0,0.0,0.0,0.0,19,43,0,4,0.6,2025-04-23T17: 13: 58.900+03: 00,49880,new.003.002.
59.9065909,30.3499763,10.803,6.852,0.0,0.0,0.0,-5.159736066292608,0.0,0.0,0.0,0.0,0.0,0.0,0.0,0.0,17,43,0,4,0.54,2025-04-23T17: 13: 59.000+03: 00,49990,new.003.002.
59.9065936,30.3499654,10.807,6.828,0.0,0.0,0.0,-5.164094153434839,0.0,0.0,0.0,0.0,0.0,0.0,0.0,0.0,17,43,0,4,0.54,2025-04-23T17: 13: 59.100+03: 00,50086,new.003.002.
59.9065964,30.3499542,10.801,6.971,0.0,0.0,0.0,-5.1645601563451216,0.0,0.0,0.0,0.0,0.0,0.0,0.0,0.0,17,43,0,4,0.54,2025-04-23T17: 13: 59.200+03: 00,50185,new.003.002.
59.906599,30.3499433,10.794,6.865,0.0,0.0,0.0,-5.169284762630269,0.0,0.0,0.0,0.0,0.0,0.0,0.0,0.0,17,43,0,4,0.54,2025-04-23T17: 13: 59.300+03: 00,50288,new.003.002.
59.9066018,30.3499323,10.788,6.89,0.0,0.0,0.0,-5.176918832778492,0.0,0.0,0.0,0.0,0.0,0.0,0.0,0.0,17,43,0,4,0.54,2025-04-23T17: 13: 59.400+03: 00,50384,new.003.002.
59.9066045,30.3499211,10.787,6.917,0.0,0.0,0.0,-5.169632083151416,0.0,0.0,0.0,0.0,0.0,0.0,0.0,0.0,17,43,0,4,0.54,2025-04-23T17: 13: 59.500+03: 00,50481,new.003.002.
59.9066072,30.3499102,10.787,6.831,0.0,0.0,0.0,-5.164239015762754,0.0,0.0,0.0,0.0,0.0,0.0,0.0,0.0,17,43,0,4,0.54,2025-04-23T17: 13: 59.600+03: 00,50587,new.003.002.
59.9066099,30.3498993,10.785,6.84,0.0,0.0,0.0,-5.162942236128521,0.0,0.0,0.0,0.0,0.0,0.0,0.0,0.0,17,43,0,4,0.54,2025-04-23T17: 13: 59.700+03: 00,50684,new.003.002.
59.9066126,30.3498881,10.786,6.912,0.0,0.0,0.0,-5.165886606576636,0.0,0.0,0.0,0.0,0.0,0.0,0.0,0.0,17,43,0,4,0.54,2025-04-23T17: 13: 59.800+03: 00,50787,new.003.002.
59.9066153,30.3498772,10.792,6.826,0.0,0.0,0.0,-5.16687969892102,0.0,0.0,0.0,0.0,0.0,0.0,0.0,0.0,17,43,0,4,0.54,2025-04-23T17: 13: 59.900+03: 00,50880,new.003.002.
59.906618,30.3498663,10.786,6.825,0.0,0.0,0.0,-5.171504821438806,0.0,0.0,0.0,0.0,0.0,0.0,0.0,0.0,19,43,0,4,0.57,2025-04-23T17: 14: 00.000+03: 00,50988,new.003.002.
59.9066207,30.3498553,10.788,6.894,0.0,0.0,0.0,-5.167047250529213,0.0,0.0,0.0,0.0,0.0,0.0,0.0,0.0,19,43,0,4,0.57,2025-04-23T17: 14: 00.100+03: 00,51091,new.003.002.
59.9066235,30.3498444,10.795,6.82,0.0,0.0,0.0,-5.175557475961937,0.0,0.0,0.0,0.0,0.0,0.0,0.0,0.0,19,43,0,4,0.57,2025-04-23T17: 14: 00.200+03: 00,51177,new.003.002.
59.9066261,30.3498334,10.796,6.77,0.0,0.0,0.0,-5.153006076696918,0.0,0.0,0.0,0.0,0.0,0.0,0.0,0.0,19,43,0,4,0.57,2025-04-23T17: 14: 00.300+03: 00,51285,new.003.002.
59.9066288,30.3498224,10.8,6.877,0.0,0.0,0.0,-5.170167899231778,0.0,0.0,0.0,0.0,0.0,0.0,0.0,0.0,19,43,0,4,0.57,2025-04-23T17: 14: 00.400+03: 00,51383,new.003.002.
59.9066313,30.3498113,10.806,6.756,0.0,0.0,0.0,-5.147066721252381,0.0,0.0,0.0,0.0,0.0,0.0,0.0,0.0,19,43,0,4,0.57,2025-04-23T17: 14: 00.500+03: 00,51488,new.003.002.
59.9066339,30.3498002,10.807,6.83,0.0,0.0,0.0,-5.138374981577449,0.0,0.0,0.0,0.0,0.0,0.0,0.0,0.0,19,43,0,4,0.57,2025-04-23T17: 14: 00.600+03: 00,51579,new.003.002.
59.9066364,30.3497892,10.809,6.772,0.0,0.0,0.0,-5.113505785065783,0.0,0.0,0.0,0.0,0.0,0.0,0.0,0.0,19,43,0,4,0.57,2025-04-23T17: 14: 00.700+03: 00,51678,new.003.002.
59.906639,30.3497781,10.811,6.783,0.0,0.0,0.0,-5.133407774526273,0.0,0.0,0.0,0.0,0.0,0.0,0.0,0.0,19,43,0,4,0.57,2025-04-23T17: 14: 00.800+03: 00,51776,new.003.002.
59.9066417,30.349767,10.814,6.885,0.0,0.0,0.0,-5.13879560592718,0.0,0.0,0.0,0.0,0.0,0.0,0.0,0.0,19,43,0,4,0.57,2025-04-23T17: 14: 00.900+03: 00,51877,new.003.002.
59.9066443,30.3497559,10.816,6.863,0.0,0.0,0.0,-5.148663697517956,0.0,0.0,0.0,0.0,0.0,0.0,0.0,0.0,11,43,0,4,0.85,2025-04-23T17: 14: 01.000+03: 00,51992,new.003.002.
59.9066471,30.3497449,10.827,6.855,0.0,0.0,0.0,-5.169961950380043,0.0,0.0,0.0,0.0,0.0,0.0,0.0,0.0,11,43,0,4,0.85,2025-04-23T17: 14: 01.100+03: 00,52081,new.003.002.
59.9066498,30.3497338,10.826,6.881,0.0,0.0,0.0,-5.162846243019662,0.0,0.0,0.0,0.0,0.0,0.0,0.0,0.0,11,43,0,4,0.85,2025-04-23T17: 14: 01.200+03: 00,52185,new.003.002.
59.9066526,30.3497227,10.825,6.976,0.0,0.0,0.0,-5.17180501807015,0.0,0.0,0.0,0.0,0.0,0.0,0.0,0.0,11,43,0,4,0.85,2025-04-23T17: 14: 01.300+03: 00,52289,new.003.002.
59.9066552,30.3497113,10.821,6.926,0.0,0.0,0.0,-5.152576725700927,0.0,0.0,0.0,0.0,0.0,0.0,0.0,0.0,11,43,0,4,0.85,2025-04-23T17: 14: 01.400+03: 00,52380,new.003.002.
59.906658,30.3496999,10.818,7.114,0.0,0.0,0.0,-5.1673893350626035,0.0,0.0,0.0,0.0,0.0,0.0,0.0,0.0,11,43,0,4,0.85,2025-04-23T17: 14: 01.500+03: 00,52481,new.003.002.
59.9066608,30.3496885,10.816,7.103,0.0,0.0,0.0,-5.156318711617203,0.0,0.0,0.0,0.0,0.0,0.0,0.0,0.0,11,43,0,4,0.85,2025-04-23T17: 14: 01.600+03: 00,52582,new.003.002.
59.9066635,30.3496768,10.815,7.157,0.0,0.0,0.0,-5.148551996445828,0.0,0.0,0.0,0.0,0.0,0.0,0.0,0.0,11,43,0,4,0.85,2025-04-23T17: 14: 01.700+03: 00,52680,new.003.002.
59.9066663,30.3496652,10.811,7.206,0.0,0.0,0.0,-5.152892630295538,0.0,0.0,0.0,0.0,0.0,0.0,0.0,0.0,11,43,0,4,0.85,2025-04-23T17: 14: 01.800+03: 00,52778,new.003.002.
59.9066692,30.3496534,10.818,7.325,0.0,0.0,0.0,-5.17103532787002,0.0,0.0,0.0,0.0,0.0,0.0,0.0,0.0,11,43,0,4,0.85,2025-04-23T17: 14: 01.900+03: 00,52877,new.003.002.
59.906678,30.3496175,10.817,7.466,0.0,0.0,0.0,-5.156320456946456,0.0,0.0,0.0,0.0,0.0,0.0,0.0,0.0,14,43,0,4,0.96,2025-04-23T17: 14: 02.200+03: 00,53184,new.003.002.
59.906681,30.3496052,10.822,7.622,0.0,0.0,0.0,-5.165457255580646,0.0,0.0,0.0,0.0,0.0,0.0,0.0,0.0,14,43,0,4,0.96,2025-04-23T17: 14: 02.300+03: 00,53279,new.003.002.
59.906684,30.349593,10.83,7.583,0.0,0.0,0.0,-5.162758976557063,0.0,0.0,0.0,0.0,0.0,0.0,0.0,0.0,14,43,0,4,0.96,2025-04-23T17: 14: 02.400+03: 00,53378,new.003.002.
59.906687,30.3495804,10.832,7.731,0.0,0.0,0.0,-5.16115501897448,0.0,0.0,0.0,0.0,0.0,0.0,0.0,0.0,14,43,0,4,0.96,2025-04-23T17: 14: 02.500+03: 00,53485,new.003.002.
59.9066901,30.3495679,10.832,7.776,0.0,0.0,0.0,-5.161783337505198,0.0,0.0,0.0,0.0,0.0,0.0,0.0,0.0,14,43,0,4,0.96,2025-04-23T17: 14: 02.600+03: 00,53577,new.003.002.
59.9066932,30.3495554,10.829,7.808,0.0,0.0,0.0,-5.174271168303218,0.0,0.0,0.0,0.0,0.0,0.0,0.0,0.0,14,43,0,4,0.96,2025-04-23T17: 14: 02.700+03: 00,53676,new.003.002.
59.9066963,30.3495424,10.834,7.972,0.0,0.0,0.0,-5.165598627250057,0.0,0.0,0.0,0.0,0.0,0.0,0.0,0.0,14,43,0,4,0.96,2025-04-23T17: 14: 02.800+03: 00,53775,new.003.002.
59.9066993,30.3495295,10.834,7.959,0.0,0.0,0.0,-5.147841647440266,0.0,0.0,0.0,0.0,0.0,0.0,0.0,0.0,14,43,0,4,0.96,2025-04-23T17: 14: 02.900+03: 00,53882,new.003.002.
59.9067026,30.3495165,10.831,8.117,0.0,0.0,0.0,-5.168014162934817,0.0,0.0,0.0,0.0,0.0,0.0,0.0,0.0,11,43,0,4,1.08,2025-04-23T17: 14: 03.000+03: 00,53984,new.003.002.
59.906706,30.3495033,10.833,8.209,0.0,0.0,0.0,-5.171707279632037,0.0,0.0,0.0,0.0,0.0,0.0,0.0,0.0,11,43,0,4,1.08,2025-04-23T17: 14: 03.100+03: 00,54076,new.003.002.
59.9067092,30.3494899,10.829,8.263,0.0,0.0,0.0,-5.174449191886921,0.0,0.0,0.0,0.0,0.0,0.0,0.0,0.0,11,43,0,4,1.08,2025-04-23T17: 14: 03.200+03: 00,54180,new.003.002.
59.9067123,30.3494766,10.82,8.298,0.0,0.0,0.0,-5.162055608868509,0.0,0.0,0.0,0.0,0.0,0.0,0.0,0.0,11,43,0,4,1.08,2025-04-23T17: 14: 03.300+03: 00,54286,new.003.002.
59.9067155,30.349463,10.819,8.356,0.0,0.0,0.0,-5.157622472568443,0.0,0.0,0.0,0.0,0.0,0.0,0.0,0.0,11,43,0,4,1.08,2025-04-23T17: 14: 03.400+03: 00,54375,new.003.002.
59.9067188,30.3494494,10.814,8.482,0.0,0.0,0.0,-5.162350569512095,0.0,0.0,0.0,0.0,0.0,0.0,0.0,0.0,11,43,0,4,1.08,2025-04-23T17: 14: 03.500+03: 00,54475,new.003.002.
59.906722,30.3494357,10.809,8.479,0.0,0.0,0.0,-5.151815762147058,0.0,0.0,0.0,0.0,0.0,0.0,0.0,0.0,11,43,0,4,1.08,2025-04-23T17: 14: 03.600+03: 00,54578,new.003.002.
59.9067254,30.3494217,10.808,8.614,0.0,0.0,0.0,-5.153379577156845,0.0,0.0,0.0,0.0,0.0,0.0,0.0,0.0,11,43,0,4,1.08,2025-04-23T17: 14: 03.700+03: 00,54673,new.003.002.
59.9067288,30.3494079,10.804,8.651,0.0,0.0,0.0,-5.168289924956632,0.0,0.0,0.0,0.0,0.0,0.0,0.0,0.0,11,43,0,4,1.08,2025-04-23T17: 14: 03.800+03: 00,54768,new.003.002.
59.9067321,30.3493937,10.811,8.71,0.0,0.0,0.0,-5.158289188342706,0.0,0.0,0.0,0.0,0.0,0.0,0.0,0.0,11,43,0,4,1.08,2025-04-23T17: 14: 03.900+03: 00,54872,new.003.002.
59.9067356,30.3493796,10.815,8.73,0.0,0.0,0.0,-5.157229773486745,0.0,0.0,0.0,0.0,0.0,0.0,0.0,0.0,12,43,0,4,1.24,2025-04-23T17: 14: 04.000+03: 00,54980,new.003.002.
59.906739,30.3493654,10.816,8.83,0.0,0.0,0.0,-5.1567515532716985,0.0,0.0,0.0,0.0,0.0,0.0,0.0,0.0,12,43,0,4,1.24,2025-04-23T17: 14: 04.100+03: 00,55079,new.003.002.
59.9067425,30.349351,10.818,8.888,0.0,0.0,0.0,-5.16168036307933,0.0,0.0,0.0,0.0,0.0,0.0,0.0,0.0,12,43,0,4,1.24,2025-04-23T17: 14: 04.200+03: 00,55175,new.003.002.
59.906746,30.3493367,10.821,8.911,0.0,0.0,0.0,-5.1637398515966835,0.0,0.0,0.0,0.0,0.0,0.0,0.0,0.0,12,43,0,4,1.24,2025-04-23T17: 14: 04.300+03: 00,55274,new.003.002.
59.9067495,30.3493223,10.824,8.943,0.0,0.0,0.0,-5.162106223416817,0.0,0.0,0.0,0.0,0.0,0.0,0.0,0.0,12,43,0,4,1.24,2025-04-23T17: 14: 04.400+03: 00,55381,new.003.002.
59.906753,30.3493078,10.828,8.955,0.0,0.0,0.0,-5.159114729078898,0.0,0.0,0.0,0.0,0.0,0.0,0.0,0.0,12,43,0,4,1.24,2025-04-23T17: 14: 04.500+03: 00,55485,new.003.002.
59.9067566,30.3492933,10.825,9.065,0.0,0.0,0.0,-5.165607353896316,0.0,0.0,0.0,0.0,0.0,0.0,0.0,0.0,12,43,0,4,1.24,2025-04-23T17: 14: 04.600+03: 00,55574,new.003.002.
59.9067601,30.3492787,10.825,9.033,0.0,0.0,0.0,-5.163099315761202,0.0,0.0,0.0,0.0,0.0,0.0,0.0,0.0,12,43,0,4,1.24,2025-04-23T17: 14: 04.700+03: 00,55673,new.003.002.
59.9067636,30.3492642,10.83,8.984,0.0,0.0,0.0,-5.1589646307632275,0.0,0.0,0.0,0.0,0.0,0.0,0.0,0.0,12,43,0,4,1.24,2025-04-23T17: 14: 04.800+03: 00,55775,new.003.002.
59.9067671,30.3492496,10.833,9.024,0.0,0.0,0.0,-5.159060623872087,0.0,0.0,0.0,0.0,0.0,0.0,0.0,0.0,12,43,0,4,1.24,2025-04-23T17: 14: 04.900+03: 00,55876,new.003.002.
59.9067705,30.3492351,10.828,8.998,0.0,0.0,0.0,-5.1609420888057365,0.0,0.0,0.0,0.0,0.0,0.0,0.0,0.0,11,42,0,4,1.31,2025-04-23T17: 14: 05.000+03: 00,55984,new.003.002.
59.906774,30.3492206,10.825,9.006,0.0,0.0,0.0,-5.15858240365704,0.0,0.0,0.0,0.0,0.0,0.0,0.0,0.0,11,42,0,4,1.31,2025-04-23T17: 14: 05.100+03: 00,56076,new.003.003.
59.9067775,30.349206,10.826,9.017,0.0,0.0,0.0,-5.159973431070879,0.0,0.0,0.0,0.0,0.0,0.0,0.0,0.0,11,42,0,4,1.31,2025-04-23T17: 14: 05.200+03: 00,56178,new.003.003.
59.9067809,30.3491916,10.821,8.977,0.0,0.0,0.0,-5.162457034596467,0.0,0.0,0.0,0.0,0.0,0.0,0.0,0.0,11,42,0,4,1.31,2025-04-23T17: 14: 05.300+03: 00,56284,new.003.003.
59.9067843,30.3491771,10.814,8.99,0.0,0.0,0.0,-5.1585038638407,0.0,0.0,0.0,0.0,0.0,0.0,0.0,0.0,11,42,0,4,1.31,2025-04-23T17: 14: 05.400+03: 00,56378,new.003.003.
59.9067878,30.3491628,10.819,8.904,0.0,0.0,0.0,-5.155369252504118,0.0,0.0,0.0,0.0,0.0,0.0,0.0,0.0,11,42,0,4,1.31,2025-04-23T17: 14: 05.500+03: 00,56474,new.003.003.
59.9067914,30.3491484,10.817,8.995,0.0,0.0,0.0,-5.164155239958657,0.0,0.0,0.0,0.0,0.0,0.0,0.0,0.0,11,42,0,4,1.31,2025-04-23T17: 14: 05.600+03: 00,56569,new.003.003.
59.906795,30.3491341,10.826,8.937,0.0,0.0,0.0,-5.169033435217982,0.0,0.0,0.0,0.0,0.0,0.0,0.0,0.0,11,42,0,4,1.31,2025-04-23T17: 14: 05.700+03: 00,56672,new.003.003.
59.9067985,30.3491195,10.832,8.976,0.0,0.0,0.0,-5.165474708873166,0.0,0.0,0.0,0.0,0.0,0.0,0.0,0.0,11,42,0,4,1.31,2025-04-23T17: 14: 05.800+03: 00,56772,new.003.003.
59.9068021,30.3491051,10.835,9.005,0.0,0.0,0.0,-5.169541326030313,0.0,0.0,0.0,0.0,0.0,0.0,0.0,0.0,11,42,0,4,1.31,2025-04-23T17: 14: 05.900+03: 00,56873,new.003.003.
59.9068056,30.3490905,10.842,9.017,0.0,0.0,0.0,-5.1513340512735075,0.0,0.0,0.0,0.0,0.0,0.0,0.0,0.0,12,42,0,4,1.32,2025-04-23T17: 14: 06.000+03: 00,56980,new.003.003.
59.9068092,30.349076,10.846,9.053,0.0,0.0,0.0,-5.163315736588449,0.0,0.0,0.0,0.0,0.0,0.0,0.0,0.0,12,42,0,4,1.32,2025-04-23T17: 14: 06.100+03: 00,57073,new.003.003.
59.9068127,30.3490612,10.849,9.122,0.0,0.0,0.0,-5.162882894933953,0.0,0.0,0.0,0.0,0.0,0.0,0.0,0.0,12,42,0,4,1.32,2025-04-23T17: 14: 06.200+03: 00,57182,new.003.003.
59.9068234,30.349017,10.845,9.196,0.0,0.0,0.0,-5.160434197993406,0.0,0.0,0.0,0.0,0.0,0.0,0.0,0.0,12,42,0,4,1.32,2025-04-23T17: 14: 06.500+03: 00,57473,new.003.003.
59.9068272,30.349002,10.849,9.343,0.0,0.0,0.0,-5.16545201959289,0.0,0.0,0.0,0.0,0.0,0.0,0.0,0.0,12,42,0,4,1.32,2025-04-23T17: 14: 06.600+03: 00,57574,new.003.003.
59.906831,30.3489869,10.855,9.436,0.0,0.0,0.0,-5.16612571668416,0.0,0.0,0.0,0.0,0.0,0.0,0.0,0.0,12,42,0,4,1.32,2025-04-23T17: 14: 06.700+03: 00,57672,new.003.003.
59.9068346,30.3489717,10.854,9.44,0.0,0.0,0.0,-5.1621777819161485,0.0,0.0,0.0,0.0,0.0,0.0,0.0,0.0,12,42,0,4,1.32,2025-04-23T17: 14: 06.800+03: 00,57771,new.003.003.
59.9068383,30.3489562,10.862,9.559,0.0,0.0,0.0,-5.158648726168616,0.0,0.0,0.0,0.0,0.0,0.0,0.0,0.0,12,42,0,4,1.32,2025-04-23T17: 14: 06.900+03: 00,57871,new.003.003.
59.9068419,30.3489408,10.865,9.567,0.0,0.0,0.0,-5.153894449286184,0.0,0.0,0.0,0.0,0.0,0.0,0.0,0.0,14,42,0,4,1.32,2025-04-23T17: 14: 07.000+03: 00,57980,new.003.003.
59.9068456,30.3489252,10.867,9.616,0.0,0.0,0.0,-5.1490092727098515,0.0,0.0,0.0,0.0,0.0,0.0,0.0,0.0,14,42,0,4,1.32,2025-04-23T17: 14: 07.100+03: 00,58073,new.003.003.
59.9068494,30.3489096,10.864,9.743,0.0,0.0,0.0,-5.162528593095799,0.0,0.0,0.0,0.0,0.0,0.0,0.0,0.0,14,42,0,4,1.32,2025-04-23T17: 14: 07.200+03: 00,58178,new.003.003.
59.9068532,30.3488939,10.868,9.716,0.0,0.0,0.0,-5.1598390407184755,0.0,0.0,0.0,0.0,0.0,0.0,0.0,0.0,14,42,0,4,1.32,2025-04-23T17: 14: 07.300+03: 00,58279,new.003.003.
59.906857,30.3488781,10.869,9.775,0.0,0.0,0.0,-5.161086951133652,0.0,0.0,0.0,0.0,0.0,0.0,0.0,0.0,14,42,0,4,1.32,2025-04-23T17: 14: 07.400+03: 00,58369,new.003.003.
59.9068609,30.3488623,10.872,9.809,0.0,0.0,0.0,-5.161783337505198,0.0,0.0,0.0,0.0,0.0,0.0,0.0,0.0,14,42,0,4,1.32,2025-04-23T17: 14: 07.500+03: 00,58474,new.003.003.
59.9068649,30.3488468,10.876,9.784,0.0,0.0,0.0,-5.177714702917402,0.0,0.0,0.0,0.0,0.0,0.0,0.0,0.0,14,42,0,4,1.32,2025-04-23T17: 14: 07.600+03: 00,58574,new.003.003.
59.9068688,30.3488309,10.882,9.868,0.0,0.0,0.0,-5.168780362476443,0.0,0.0,0.0,0.0,0.0,0.0,0.0,0.0,14,42,0,4,1.32,2025-04-23T17: 14: 07.700+03: 00,58677,new.003.003.
59.9068725,30.3488149,10.888,9.919,0.0,0.0,0.0,-5.160755338575774,0.0,0.0,0.0,0.0,0.0,0.0,0.0,0.0,14,42,0,4,1.32,2025-04-23T17: 14: 07.800+03: 00,58778,new.003.003.
59.9068765,30.348799,10.895,9.868,0.0,0.0,0.0,-5.162624586204659,0.0,0.0,0.0,0.0,0.0,0.0,0.0,0.0,14,42,0,4,1.32,2025-04-23T17: 14: 07.900+03: 00,58874,new.003.003.
59.9068803,30.3487829,10.899,9.986,0.0,0.0,0.0,-5.1613120986071594,0.0,0.0,0.0,0.0,0.0,0.0,0.0,0.0,16,43,0,4,1.32,2025-04-23T17: 14: 08.000+03: 00,58982,new.003.003.
59.9068842,30.3487668,10.904,9.981,0.0,0.0,0.0,-5.159814606108948,0.0,0.0,0.0,0.0,0.0,0.0,0.0,0.0,16,43,0,4,1.32,2025-04-23T17: 14: 08.100+03: 00,59083,new.003.003.
59.9068882,30.3487507,10.908,10.039,0.0,0.0,0.0,-5.170228985755598,0.0,0.0,0.0,0.0,0.0,0.0,0.0,0.0,16,43,0,4,1.32,2025-04-23T17: 14: 08.200+03: 00,59177,new.003.003.
59.9068922,30.3487344,10.91,10.113,0.0,0.0,0.0,-5.160125274715803,0.0,0.0,0.0,0.0,0.0,0.0,0.0,0.0,16,43,0,4,1.32,2025-04-23T17: 14: 08.300+03: 00,59274,new.003.003.
59.9068962,30.3487182,10.914,10.103,0.0,0.0,0.0,-5.16483940902544,0.0,0.0,0.0,0.0,0.0,0.0,0.0,0.0,16,43,0,4,1.32,2025-04-23T17: 14: 08.400+03: 00,59387,new.003.003.
59.9069002,30.3487018,10.921,10.104,0.0,0.0,0.0,-5.16061222157711,0.0,0.0,0.0,0.0,0.0,0.0,0.0,0.0,16,43,0,4,1.32,2025-04-23T17: 14: 08.500+03: 00,59483,new.003.003.
59.9069041,30.3486854,10.93,10.154,0.0,0.0,0.0,-5.1571669416336725,0.0,0.0,0.0,0.0,0.0,0.0,0.0,0.0,16,43,0,4,1.32,2025-04-23T17: 14: 08.600+03: 00,59576,new.003.003.
59.9069079,30.348669,10.937,10.113,0.0,0.0,0.0,-5.150529454488337,0.0,0.0,0.0,0.0,0.0,0.0,0.0,0.0,16,43,0,4,1.32,2025-04-23T17: 14: 08.700+03: 00,59676,new.003.003.
59.906912,30.3486528,10.948,10.108,0.0,0.0,0.0,-5.166328174877391,0.0,0.0,0.0,0.0,0.0,0.0,0.0,0.0,16,43,0,4,1.32,2025-04-23T17: 14: 08.800+03: 00,59774,new.003.003.
59.9069159,30.3486365,10.949,10.104,0.0,0.0,0.0,-5.159181051590474,0.0,0.0,0.0,0.0,0.0,0.0,0.0,0.0,16,43,0,4,1.32,2025-04-23T17: 14: 08.900+03: 00,59873,new.003.003.
59.9069197,30.3486201,10.955,10.098,0.0,0.0,0.0,-5.153835108091616,0.0,0.0,0.0,0.0,0.0,0.0,0.0,0.0,15,43,0,4,1.05,2025-04-23T17: 14: 09.000+03: 00,59982,new.003.003.
59.9069235,30.3486038,10.956,10.07,0.0,0.0,0.0,-5.148140098742358,0.0,0.0,0.0,0.0,0.0,0.0,0.0,0.0,15,43,0,4,1.05,2025-04-23T17: 14: 09.100+03: 00,60086,new.003.003.
59.9069274,30.3485876,10.964,10.025,0.0,0.0,0.0,-5.154048038260359,0.0,0.0,0.0,0.0,0.0,0.0,0.0,0.0,15,43,0,4,1.05,2025-04-23T17: 14: 09.200+03: 00,60176,new.003.003.
59.9069313,30.3485715,10.972,10.046,0.0,0.0,0.0,-5.166748799227121,0.0,0.0,0.0,0.0,0.0,0.0,0.0,0.0,15,43,0,4,1.05,2025-04-23T17: 14: 09.300+03: 00,60283,new.003.003.
59.9069352,30.3485553,10.977,10.045,0.0,0.0,0.0,-5.162219669818196,0.0,0.0,0.0,0.0,0.0,0.0,0.0,0.0,15,43,0,4,1.05,2025-04-23T17: 14: 09.400+03: 00,60376,new.003.003.
59.906939,30.3485392,10.986,9.987,0.0,0.0,0.0,-5.155009714678207,0.0,0.0,0.0,0.0,0.0,0.0,0.0,0.0,15,43,0,4,1.05,2025-04-23T17: 14: 09.500+03: 00,60473,new.003.003.
59.9069431,30.348523,10.991,10.09,0.0,0.0,0.0,-5.160928126171721,0.0,0.0,0.0,0.0,0.0,0.0,0.0,0.0,15,43,0,4,1.05,2025-04-23T17: 14: 09.600+03: 00,60573,new.003.003.
59.906947,30.3485069,11.0,10.013,0.0,0.0,0.0,-5.158053568893686,0.0,0.0,0.0,0.0,0.0,0.0,0.0,0.0,15,43,0,4,1.05,2025-04-23T17: 14: 09.700+03: 00,60672,new.003.003.
59.9069509,30.3484908,11.005,9.994,0.0,0.0,0.0,-5.159516154806857,0.0,0.0,0.0,0.0,0.0,0.0,0.0,0.0,15,43,0,4,1.05,2025-04-23T17: 14: 09.800+03: 00,60771,new.003.003.
59.9069549,30.3484747,11.014,10.021,0.0,0.0,0.0,-5.171932427105545,0.0,0.0,0.0,0.0,0.0,0.0,0.0,0.0,15,43,0,4,1.05,2025-04-23T17: 14: 09.900+03: 00,60872,new.003.003.
59.9069588,30.3484588,11.014,9.956,0.0,0.0,0.0,-5.168110156043677,0.0,0.0,0.0,0.0,0.0,0.0,0.0,0.0,16,43,0,4,1.06,2025-04-23T17: 14: 10.000+03: 00,60980,new.003.003.
59.9069627,30.3484428,11.023,9.919,0.0,0.0,0.0,-5.168066522812378,0.0,0.0,0.0,0.0,0.0,0.0,0.0,0.0,16,43,0,4,1.06,2025-04-23T17: 14: 10.100+03: 00,61070,new.003.003.
59.9069667,30.3484268,11.032,9.945,0.0,0.0,0.0,-5.164582845625396,0.0,0.0,0.0,0.0,0.0,0.0,0.0,0.0,16,43,0,4,1.06,2025-04-23T17: 14: 10.200+03: 00,61181,new.003.003.
59.9069705,30.348411,11.04,9.864,0.0,0.0,0.0,-5.1622231604766995,0.0,0.0,0.0,0.0,0.0,0.0,0.0,0.0,16,43,0,4,1.06,2025-04-23T17: 14: 10.300+03: 00,61278,new.003.003.
59.9069745,30.3483953,11.044,9.829,0.0,0.0,0.0,-5.165326355886746,0.0,0.0,0.0,0.0,0.0,0.0,0.0,0.0,16,43,0,4,1.06,2025-04-23T17: 14: 10.400+03: 00,61377,new.003.003.
59.9069781,30.3483795,11.045,9.753,0.0,0.0,0.0,-5.1542801670508736,0.0,0.0,0.0,0.0,0.0,0.0,0.0,0.0,16,43,0,4,1.06,2025-04-23T17: 14: 10.500+03: 00,61484,new.003.003.
59.9069819,30.3483641,11.05,9.606,0.0,0.0,0.0,-5.159270063382325,0.0,0.0,0.0,0.0,0.0,0.0,0.0,0.0,16,43,0,4,1.06,2025-04-23T17: 14: 10.600+03: 00,61576,new.003.003.
59.9069854,30.3483486,11.055,9.51,0.0,0.0,0.0,-5.142485231965896,0.0,0.0,0.0,0.0,0.0,0.0,0.0,0.0,16,43,0,4,1.06,2025-04-23T17: 14: 10.700+03: 00,61676,new.003.003.
59.9069892,30.3483334,11.062,9.51,0.0,0.0,0.0,-5.168441768601556,0.0,0.0,0.0,0.0,0.0,0.0,0.0,0.0,16,43,0,4,1.06,2025-04-23T17: 14: 10.800+03: 00,61777,new.003.003.
59.9069928,30.3483183,11.068,9.342,0.0,0.0,0.0,-5.160676798759433,0.0,0.0,0.0,0.0,0.0,0.0,0.0,0.0,16,43,0,4,1.06,2025-04-23T17: 14: 10.900+03: 00,61875,new.003.003.
59.9069965,30.3483036,11.072,9.228,0.0,0.0,0.0,-5.164045284215782,0.0,0.0,0.0,0.0,0.0,0.0,0.0,0.0,14,43,0,4,0.95,2025-04-23T17: 14: 11.000+03: 00,61981,new.003.003.
59.9070001,30.348289,11.072,9.182,0.0,0.0,0.0,-5.179058606441438,0.0,0.0,0.0,0.0,0.0,0.0,0.0,0.0,14,43,0,4,0.95,2025-04-23T17: 14: 11.100+03: 00,62083,new.003.003.
59.9070037,30.3482743,11.075,9.146,0.0,0.0,0.0,-5.169427879628932,0.0,0.0,0.0,0.0,0.0,0.0,0.0,0.0,14,43,0,4,0.95,2025-04-23T17: 14: 11.200+03: 00,62179,new.003.003.
59.9070072,30.3482599,11.073,9.012,0.0,0.0,0.0,-5.162532083754303,0.0,0.0,0.0,0.0,0.0,0.0,0.0,0.0,14,43,0,4,0.95,2025-04-23T17: 14: 11.300+03: 00,62301,new.003.003.
59.9070106,30.3482454,11.076,9.018,0.0,0.0,0.0,-5.1601270200450555,0.0,0.0,0.0,0.0,0.0,0.0,0.0,0.0,14,43,0,4,0.95,2025-04-23T17: 14: 11.400+03: 00,62381,new.003.003.
59.907014,30.348231,11.075,8.943,0.0,0.0,0.0,-5.155988844388577,0.0,0.0,0.0,0.0,0.0,0.0,0.0,0.0,14,43,0,4,0.95,2025-04-23T17: 14: 11.500+03: 00,62484,new.003.003.
59.9070176,30.3482168,11.08,8.898,0.0,0.0,0.0,-5.168946168755382,0.0,0.0,0.0,0.0,0.0,0.0,0.0,0.0,14,43,0,4,0.95,2025-04-23T17: 14: 11.600+03: 00,62590,new.003.003.
59.907021,30.3482025,11.083,8.834,0.0,0.0,0.0,-5.156894670270361,0.0,0.0,0.0,0.0,0.0,0.0,0.0,0.0,14,43,0,4,0.95,2025-04-23T17: 14: 11.700+03: 00,62680,new.003.003.
59.9070245,30.3481882,11.083,8.884,0.0,0.0,0.0,-5.165459000909898,0.0,0.0,0.0,0.0,0.0,0.0,0.0,0.0,14,43,0,4,0.95,2025-04-23T17: 14: 11.800+03: 00,62779,new.003.003.
59.9070279,30.3481741,11.086,8.828,0.0,0.0,0.0,-5.165427584983362,0.0,0.0,0.0,0.0,0.0,0.0,0.0,0.0,14,43,0,4,0.95,2025-04-23T17: 14: 11.900+03: 00,62872,new.003.003.
59.9070315,30.3481599,11.09,8.85,0.0,0.0,0.0,-5.170101576720203,0.0,0.0,0.0,0.0,0.0,0.0,0.0,0.0,16,43,0,4,0.67,2025-04-23T17: 14: 12.000+03: 00,62988,new.003.003.
59.9070348,30.3481457,11.094,8.786,0.0,0.0,0.0,-5.162566990339343,0.0,0.0,0.0,0.0,0.0,0.0,0.0,0.0,16,43,0,4,0.67,2025-04-23T17: 14: 12.100+03: 00,63081,new.003.003.
59.9070383,30.3481317,11.095,8.774,0.0,0.0,0.0,-5.1670105986149215,0.0,0.0,0.0,0.0,0.0,0.0,0.0,0.0,16,43,0,4,0.67,2025-04-23T17: 14: 12.200+03: 00,63181,new.003.003.
59.9070418,30.3481174,11.099,8.824,0.0,0.0,0.0,-5.160570333675062,0.0,0.0,0.0,0.0,0.0,0.0,0.0,0.0,16,43,0,4,0.67,2025-04-23T17: 14: 12.300+03: 00,63279,new.003.003.
59.9070452,30.3481034,11.102,8.763,0.0,0.0,0.0,-5.158453249292392,0.0,0.0,0.0,0.0,0.0,0.0,0.0,0.0,16,43,0,4,0.67,2025-04-23T17: 14: 12.400+03: 00,63380,new.003.003.
59.9070487,30.3480893,11.108,8.77,0.0,0.0,0.0,-5.170356394790994,0.0,0.0,0.0,0.0,0.0,0.0,0.0,0.0,16,43,0,4,0.67,2025-04-23T17: 14: 12.500+03: 00,63482,new.003.003.
59.9070521,30.3480751,11.114,8.804,0.0,0.0,0.0,-5.165987835673252,0.0,0.0,0.0,0.0,0.0,0.0,0.0,0.0,16,43,0,4,0.67,2025-04-23T17: 14: 12.600+03: 00,63577,new.003.003.
59.9070555,30.348061,11.119,8.762,0.0,0.0,0.0,-5.158646980839364,0.0,0.0,0.0,0.0,0.0,0.0,0.0,0.0,16,43,0,4,0.67,2025-04-23T17: 14: 12.700+03: 00,63679,new.003.003.
59.9070589,30.3480469,11.123,8.749,0.0,0.0,0.0,-5.159943760473595,0.0,0.0,0.0,0.0,0.0,0.0,0.0,0.0,16,43,0,4,0.67,2025-04-23T17: 14: 12.800+03: 00,63771,new.003.003.
59.9070623,30.3480328,11.126,8.775,0.0,0.0,0.0,-5.16156691667795,0.0,0.0,0.0,0.0,0.0,0.0,0.0,0.0,16,43,0,4,0.67,2025-04-23T17: 14: 12.900+03: 00,63876,new.003.003.
59.9070657,30.3480187,11.134,8.736,0.0,0.0,0.0,-5.162807845776118,0.0,0.0,0.0,0.0,0.0,0.0,0.0,0.0,17,43,0,4,0.6,2025-04-23T17: 14: 13.000+03: 00,63985,new.003.003.
59.9070691,30.3480045,11.135,8.769,0.0,0.0,0.0,-5.160903691562192,0.0,0.0,0.0,0.0,0.0,0.0,0.0,0.0,17,43,0,4,0.6,2025-04-23T17: 14: 13.100+03: 00,64085,new.003.003.
59.9070725,30.3479905,11.139,8.73,0.0,0.0,0.0,-5.161378421118735,0.0,0.0,0.0,0.0,0.0,0.0,0.0,0.0,17,43,0,4,0.6,2025-04-23T17: 14: 13.200+03: 00,64184,new.003.003.
59.907076,30.3479765,11.139,8.721,0.0,0.0,0.0,-5.163565318671484,0.0,0.0,0.0,0.0,0.0,0.0,0.0,0.0,17,43,0,4,0.6,2025-04-23T17: 14: 13.300+03: 00,64289,new.003.003.
59.9070794,30.3479624,11.14,8.739,0.0,0.0,0.0,-5.163546120049712,0.0,0.0,0.0,0.0,0.0,0.0,0.0,0.0,17,43,0,4,0.6,2025-04-23T17: 14: 13.400+03: 00,64382,new.003.003.
59.9070828,30.3479484,11.144,8.706,0.0,0.0,0.0,-5.164687565380516,0.0,0.0,0.0,0.0,0.0,0.0,0.0,0.0,17,43,0,4,0.6,2025-04-23T17: 14: 13.500+03: 00,64484,new.003.003.
59.9070861,30.3479344,11.145,8.691,0.0,0.0,0.0,-5.156072620192672,0.0,0.0,0.0,0.0,0.0,0.0,0.0,0.0,17,43,0,4,0.6,2025-04-23T17: 14: 13.600+03: 00,64584,new.003.003.
59.9070895,30.3479205,11.145,8.666,0.0,0.0,0.0,-5.160210795849151,0.0,0.0,0.0,0.0,0.0,0.0,0.0,0.0,17,43,0,4,0.6,2025-04-23T17: 14: 13.700+03: 00,64677,new.003.003.
59.9070928,30.3479065,11.153,8.648,0.0,0.0,0.0,-5.155514114832035,0.0,0.0,0.0,0.0,0.0,0.0,0.0,0.0,17,43,0,4,0.6,2025-04-23T17: 14: 13.800+03: 00,64782,new.003.003.
59.9070962,30.3478927,11.153,8.579,0.0,0.0,0.0,-5.162786901825094,0.0,0.0,0.0,0.0,0.0,0.0,0.0,0.0,17,43,0,4,0.6,2025-04-23T17: 14: 13.900+03: 00,64881,new.003.003.
59.9070996,30.3478789,11.159,8.583,0.0,0.0,0.0,-5.164607280234923,0.0,0.0,0.0,0.0,0.0,0.0,0.0,0.0,21,43,0,4,0.52,2025-04-23T17: 14: 14.000+03: 00,64989,new.003.003.
59.9071029,30.3478652,11.17,8.522,0.0,0.0,0.0,-5.165736508260965,0.0,0.0,0.0,0.0,0.0,0.0,0.0,0.0,21,43,0,4,0.52,2025-04-23T17: 14: 14.100+03: 00,65092,new.003.003.
59.9071063,30.3478517,11.176,8.438,0.0,0.0,0.0,-5.172766694487998,0.0,0.0,0.0,0.0,0.0,0.0,0.0,0.0,21,43,0,4,0.52,2025-04-23T17: 14: 14.200+03: 00,65189,new.003.003.
59.9071096,30.3478384,11.18,8.36,0.0,0.0,0.0,-5.171370431086403,0.0,0.0,0.0,0.0,0.0,0.0,0.0,0.0,21,43,0,4,0.52,2025-04-23T17: 14: 14.300+03: 00,65283,new.003.003.
59.9071129,30.3478249,11.185,8.347,0.0,0.0,0.0,-5.1644362379682285,0.0,0.0,0.0,0.0,0.0,0.0,0.0,0.0,21,43,0,4,0.52,2025-04-23T17: 14: 14.400+03: 00,65383,new.003.003.
59.907116,30.3478116,11.191,8.281,0.0,0.0,0.0,-5.149335649279974,0.0,0.0,0.0,0.0,0.0,0.0,0.0,0.0,21,43,0,4,0.52,2025-04-23T17: 14: 14.500+03: 00,65486,new.003.003.
59.9071193,30.3477985,11.192,8.206,0.0,0.0,0.0,-5.169656517760944,0.0,0.0,0.0,0.0,0.0,0.0,0.0,0.0,21,43,0,4,0.52,2025-04-23T17: 14: 14.600+03: 00,65576,new.003.003.
59.9071223,30.3477853,11.197,8.155,0.0,0.0,0.0,-5.151042581288424,0.0,0.0,0.0,0.0,0.0,0.0,0.0,0.0,21,43,0,4,0.52,2025-04-23T17: 14: 14.700+03: 00,65682,new.003.003.
59.9071255,30.3477723,11.201,8.096,0.0,0.0,0.0,-5.150684788791766,0.0,0.0,0.0,0.0,0.0,0.0,0.0,0.0,21,43,0,4,0.52,2025-04-23T17: 14: 14.800+03: 00,65782,new.003.003.
59.9071287,30.3477591,11.207,8.106,0.0,0.0,0.0,-5.164010377630742,0.0,0.0,0.0,0.0,0.0,0.0,0.0,0.0,21,43,0,4,0.52,2025-04-23T17: 14: 14.900+03: 00,65881,new.003.003.
59.9071319,30.3477462,11.212,8.066,0.0,0.0,0.0,-5.163926601826646,0.0,0.0,0.0,0.0,0.0,0.0,0.0,0.0,22,43,0,4,0.53,2025-04-23T17: 14: 15.000+03: 00,65990,new.003.003.
59.9071351,30.3477333,11.215,8.059,0.0,0.0,0.0,-5.170126011329731,0.0,0.0,0.0,0.0,0.0,0.0,0.0,0.0,22,43,0,4,0.53,2025-04-23T17: 14: 15.100+03: 00,66085,new.003.004.
59.9071383,30.3477204,11.219,8.05,0.0,0.0,0.0,-5.171721242266053,0.0,0.0,0.0,0.0,0.0,0.0,0.0,0.0,22,43,0,4,0.53,2025-04-23T17: 14: 15.200+03: 00,66188,new.003.004.
59.9071414,30.3477075,11.221,8.031,0.0,0.0,0.0,-5.172934246096189,0.0,0.0,0.0,0.0,0.0,0.0,0.0,0.0,22,43,0,4,0.53,2025-04-23T17: 14: 15.300+03: 00,66293,new.003.004.
59.9071446,30.3476946,11.227,8.052,0.0,0.0,0.0,-5.16790246186269,0.0,0.0,0.0,0.0,0.0,0.0,0.0,0.0,22,43,0,4,0.53,2025-04-23T17: 14: 15.400+03: 00,66388,new.003.004.
59.9071478,30.3476817,11.226,8.025,0.0,0.0,0.0,-5.1630068133108455,0.0,0.0,0.0,0.0,0.0,0.0,0.0,0.0,22,43,0,4,0.53,2025-04-23T17: 14: 15.500+03: 00,66481,new.003.004.
59.9071509,30.3476688,11.225,8.017,0.0,0.0,0.0,-5.1634483816116,0.0,0.0,0.0,0.0,0.0,0.0,0.0,0.0,22,43,0,4,0.53,2025-04-23T17: 14: 15.600+03: 00,66583,new.003.004.
59.9071539,30.3476559,11.23,7.959,0.0,0.0,0.0,-5.157713229689547,0.0,0.0,0.0,0.0,0.0,0.0,0.0,0.0,22,43,0,4,0.53,2025-04-23T17: 14: 15.700+03: 00,66682,new.003.004.
59.9071569,30.3476429,11.233,8.019,0.0,0.0,0.0,-5.1442881570832055,0.0,0.0,0.0,0.0,0.0,0.0,0.0,0.0,22,43,0,4,0.53,2025-04-23T17: 14: 15.800+03: 00,66783,new.003.004.
59.90716,30.34763,11.237,7.964,0.0,0.0,0.0,-5.151063525239449,0.0,0.0,0.0,0.0,0.0,0.0,0.0,0.0,22,43,0,4,0.53,2025-04-23T17: 14: 15.900+03: 00,66882,new.003.004.
59.9071693,30.3475917,11.251,7.827,0.0,0.0,0.0,-5.1672706526734675,0.0,0.0,0.0,0.0,0.0,0.0,0.0,0.0,16,43,0,4,0.55,2025-04-23T17: 14: 16.200+03: 00,67187,new.003.004.
59.9071725,30.3475789,11.258,7.956,0.0,0.0,0.0,-5.16314993030951,0.0,0.0,0.0,0.0,0.0,0.0,0.0,0.0,16,43,0,4,0.55,2025-04-23T17: 14: 16.300+03: 00,67281,new.003.004.
59.9071756,30.3475663,11.264,7.89,0.0,0.0,0.0,-5.166394497388967,0.0,0.0,0.0,0.0,0.0,0.0,0.0,0.0,16,43,0,4,0.55,2025-04-23T17: 14: 16.400+03: 00,67376,new.003.004.
59.9071786,30.3475538,11.267,7.811,0.0,0.0,0.0,-5.16775410887627,0.0,0.0,0.0,0.0,0.0,0.0,0.0,0.0,16,43,0,4,0.55,2025-04-23T17: 14: 16.500+03: 00,67488,new.003.004.
59.9071816,30.3475414,11.272,7.73,0.0,0.0,0.0,-5.153545383435785,0.0,0.0,0.0,0.0,0.0,0.0,0.0,0.0,16,43,0,4,0.55,2025-04-23T17: 14: 16.600+03: 00,67580,new.003.004.
59.9071845,30.3475289,11.279,7.667,0.0,0.0,0.0,-5.153875250664411,0.0,0.0,0.0,0.0,0.0,0.0,0.0,0.0,16,43,0,4,0.55,2025-04-23T17: 14: 16.700+03: 00,67681,new.003.004.
59.9071876,30.3475167,11.283,7.618,0.0,0.0,0.0,-5.16630199493861,0.0,0.0,0.0,0.0,0.0,0.0,0.0,0.0,16,43,0,4,0.55,2025-04-23T17: 14: 16.800+03: 00,67781,new.003.004.
59.9071905,30.3475045,11.289,7.593,0.0,0.0,0.0,-5.15698019140371,0.0,0.0,0.0,0.0,0.0,0.0,0.0,0.0,16,43,0,4,0.55,2025-04-23T17: 14: 16.900+03: 00,67882,new.003.004.
59.9071934,30.3474924,11.294,7.48,0.0,0.0,0.0,-5.16402608559401,0.0,0.0,0.0,0.0,0.0,0.0,0.0,0.0,14,43,0,4,0.54,2025-04-23T17: 14: 17.000+03: 00,67996,new.003.004.
59.9071963,30.3474804,11.302,7.449,0.0,0.0,0.0,-5.163956272423931,0.0,0.0,0.0,0.0,0.0,0.0,0.0,0.0,14,43,0,4,0.54,2025-04-23T17: 14: 17.100+03: 00,68083,new.003.004.
59.9071992,30.3474686,11.312,7.379,0.0,0.0,0.0,-5.159585967976937,0.0,0.0,0.0,0.0,0.0,0.0,0.0,0.0,14,43,0,4,0.54,2025-04-23T17: 14: 17.200+03: 00,68182,new.003.004.
59.9072021,30.3474569,11.315,7.322,0.0,0.0,0.0,-5.169867702600435,0.0,0.0,0.0,0.0,0.0,0.0,0.0,0.0,14,43,0,4,0.54,2025-04-23T17: 14: 17.300+03: 00,68285,new.003.004.
59.907205,30.3474453,11.317,7.231,0.0,0.0,0.0,-5.167352683148311,0.0,0.0,0.0,0.0,0.0,0.0,0.0,0.0,14,43,0,4,0.54,2025-04-23T17: 14: 17.400+03: 00,68382,new.003.004.
59.9072079,30.3474337,11.323,7.285,0.0,0.0,0.0,-5.1725188577342145,0.0,0.0,0.0,0.0,0.0,0.0,0.0,0.0,14,43,0,4,0.54,2025-04-23T17: 14: 17.500+03: 00,68480,new.003.004.
59.9072106,30.3474221,11.334,7.174,0.0,0.0,0.0,-5.15434648956245,0.0,0.0,0.0,0.0,0.0,0.0,0.0,0.0,14,43,0,4,0.54,2025-04-23T17: 14: 17.600+03: 00,68587,new.003.004.
59.9072134,30.3474105,11.34,7.182,0.0,0.0,0.0,-5.159006518665274,0.0,0.0,0.0,0.0,0.0,0.0,0.0,0.0,14,43,0,4,0.54,2025-04-23T17: 14: 17.700+03: 00,68689,new.003.004.
59.9072161,30.3473987,11.347,7.23,0.0,0.0,0.0,-5.1469078962904495,0.0,0.0,0.0,0.0,0.0,0.0,0.0,0.0,14,43,0,4,0.54,2025-04-23T17: 14: 17.800+03: 00,68780,new.003.004.
59.9072189,30.347387,11.351,7.221,0.0,0.0,0.0,-5.15450531452438,0.0,0.0,0.0,0.0,0.0,0.0,0.0,0.0,14,43,0,4,0.54,2025-04-23T17: 14: 17.900+03: 00,68878,new.003.004.
59.9072216,30.3473755,11.354,7.177,0.0,0.0,0.0,-5.161439507642555,0.0,0.0,0.0,0.0,0.0,0.0,0.0,0.0,15,43,0,4,0.6,2025-04-23T17: 14: 18.000+03: 00,68987,new.003.004.
59.9072244,30.3473639,11.359,7.193,0.0,0.0,0.0,-5.161177708254756,0.0,0.0,0.0,0.0,0.0,0.0,0.0,0.0,15,43,0,4,0.6,2025-04-23T17: 14: 18.100+03: 00,69084,new.003.004.
59.9072273,30.3473524,11.362,7.165,0.0,0.0,0.0,-5.1715257653898306,0.0,0.0,0.0,0.0,0.0,0.0,0.0,0.0,15,43,0,4,0.6,2025-04-23T17: 14: 18.200+03: 00,69180,new.003.004.
59.9072301,30.3473409,11.362,7.156,0.0,0.0,0.0,-5.17465863139716,0.0,0.0,0.0,0.0,0.0,0.0,0.0,0.0,15,43,0,4,0.6,2025-04-23T17: 14: 18.300+03: 00,69281,new.003.004.
59.9072329,30.3473294,11.367,7.182,0.0,0.0,0.0,-5.168483656503604,0.0,0.0,0.0,0.0,0.0,0.0,0.0,0.0,15,43,0,4,0.6,2025-04-23T17: 14: 18.400+03: 00,69379,new.003.004.
59.9072358,30.347318,11.369,7.147,0.0,0.0,0.0,-5.1723408341505115,0.0,0.0,0.0,0.0,0.0,0.0,0.0,0.0,15,43,0,4,0.6,2025-04-23T17: 14: 18.500+03: 00,69485,new.003.004.
59.9072385,30.3473065,11.369,7.151,0.0,0.0,0.0,-5.16091939952546,0.0,0.0,0.0,0.0,0.0,0.0,0.0,0.0,15,43,0,4,0.6,2025-04-23T17: 14: 18.600+03: 00,69578,new.003.004.
59.9072413,30.347295,11.366,7.094,0.0,0.0,0.0,-5.164705018673036,0.0,0.0,0.0,0.0,0.0,0.0,0.0,0.0,15,43,0,4,0.6,2025-04-23T17: 14: 18.700+03: 00,69677,new.003.004.
59.907244,30.3472836,11.368,7.113,0.0,0.0,0.0,-5.162080043478037,0.0,0.0,0.0,0.0,0.0,0.0,0.0,0.0,15,43,0,4,0.6,2025-04-23T17: 14: 18.800+03: 00,69777,new.003.004.
59.9072468,30.3472721,11.367,7.086,0.0,0.0,0.0,-5.159711631683081,0.0,0.0,0.0,0.0,0.0,0.0,0.0,0.0,15,43,0,4,0.6,2025-04-23T17: 14: 18.900+03: 00,69878,new.003.004.
59.9072494,30.3472608,11.372,7.045,0.0,0.0,0.0,-5.156901651587369,0.0,0.0,0.0,0.0,0.0,0.0,0.0,0.0,12,43,0,4,0.76,2025-04-23T17: 14: 19.000+03: 00,69984,new.003.004.
59.9072522,30.3472496,11.379,6.952,0.0,0.0,0.0,-5.160650618820653,0.0,0.0,0.0,0.0,0.0,0.0,0.0,0.0,12,43,0,4,0.76,2025-04-23T17: 14: 19.100+03: 00,70074,new.003.004.
59.9072548,30.3472385,11.389,6.935,0.0,0.0,0.0,-5.160881002281917,0.0,0.0,0.0,0.0,0.0,0.0,0.0,0.0,12,43,0,4,0.76,2025-04-23T17: 14: 19.200+03: 00,70180,new.003.004.
59.9072574,30.3472276,11.395,6.793,0.0,0.0,0.0,-5.158434050670621,0.0,0.0,0.0,0.0,0.0,0.0,0.0,0.0,12,43,0,4,0.76,2025-04-23T17: 14: 19.300+03: 00,70285,new.003.004.
59.9072601,30.3472168,11.403,6.798,0.0,0.0,0.0,-5.166207747159003,0.0,0.0,0.0,0.0,0.0,0.0,0.0,0.0,12,43,0,4,0.76,2025-04-23T17: 14: 19.400+03: 00,70377,new.003.004.
59.9072627,30.3472059,11.406,6.732,0.0,0.0,0.0,-5.15495037348364,0.0,0.0,0.0,0.0,0.0,0.0,0.0,0.0,12,43,0,4,0.76,2025-04-23T17: 14: 19.500+03: 00,70480,new.003.004.
59.9072653,30.3471951,11.412,6.665,0.0,0.0,0.0,-5.158882600288384,0.0,0.0,0.0,0.0,0.0,0.0,0.0,0.0,12,43,0,4,0.76,2025-04-23T17: 14: 19.600+03: 00,70577,new.003.004.
59.9072679,30.3471845,11.409,6.724,0.0,0.0,0.0,-5.165256542716667,0.0,0.0,0.0,0.0,0.0,0.0,0.0,0.0,12,43,0,4,0.76,2025-04-23T17: 14: 19.700+03: 00,70680,new.003.004.
59.9072705,30.3471738,11.409,6.644,0.0,0.0,0.0,-5.168129354665449,0.0,0.0,0.0,0.0,0.0,0.0,0.0,0.0,12,43,0,4,0.76,2025-04-23T17: 14: 19.800+03: 00,70786,new.003.004.
59.9072731,30.3471631,11.414,6.624,0.0,0.0,0.0,-5.16109393245066,0.0,0.0,0.0,0.0,0.0,0.0,0.0,0.0,12,43,0,4,0.76,2025-04-23T17: 14: 19.900+03: 00,70877,new.003.004.
59.9072757,30.3471524,11.42,6.621,0.0,0.0,0.0,-5.159205486200002,0.0,0.0,0.0,0.0,0.0,0.0,0.0,0.0,12,43,0,4,0.89,2025-04-23T17: 14: 20.000+03: 00,70982,new.003.004.
59.9072784,30.3471419,11.43,6.658,0.0,0.0,0.0,-5.171775347472865,0.0,0.0,0.0,0.0,0.0,0.0,0.0,0.0,12,43,0,4,0.89,2025-04-23T17: 14: 20.100+03: 00,71088,new.003.004.
59.907281,30.3471312,11.436,6.588,0.0,0.0,0.0,-5.166298504280107,0.0,0.0,0.0,0.0,0.0,0.0,0.0,0.0,12,43,0,4,0.89,2025-04-23T17: 14: 20.200+03: 00,71178,new.003.004.
59.9072887,30.3470994,11.456,6.576,0.0,0.0,0.0,-5.161589605958226,0.0,0.0,0.0,0.0,0.0,0.0,0.0,0.0,12,43,0,4,0.89,2025-04-23T17: 14: 20.500+03: 00,71488,new.003.004.
59.9072912,30.3470887,11.46,6.608,0.0,0.0,0.0,-5.155515860161286,0.0,0.0,0.0,0.0,0.0,0.0,0.0,0.0,12,43,0,4,0.89,2025-04-23T17: 14: 20.600+03: 00,71578,new.003.004.
59.9072938,30.3470781,11.467,6.62,0.0,0.0,0.0,-5.163320972576205,0.0,0.0,0.0,0.0,0.0,0.0,0.0,0.0,12,43,0,4,0.89,2025-04-23T17: 14: 20.700+03: 00,71679,new.003.004.
59.9072964,30.3470675,11.466,6.622,0.0,0.0,0.0,-5.165870898613368,0.0,0.0,0.0,0.0,0.0,0.0,0.0,0.0,12,43,0,4,0.89,2025-04-23T17: 14: 20.800+03: 00,71776,new.003.004.
59.9072989,30.3470567,11.464,6.646,0.0,0.0,0.0,-5.152630830907739,0.0,0.0,0.0,0.0,0.0,0.0,0.0,0.0,12,43,0,4,0.89,2025-04-23T17: 14: 20.900+03: 00,71872,new.003.004.
59.9073016,30.347046,11.468,6.71,0.0,0.0,0.0,-5.161554699373186,0.0,0.0,0.0,0.0,0.0,0.0,0.0,0.0,12,43,0,4,0.87,2025-04-23T17: 14: 21.000+03: 00,71985,new.003.004.
59.9073042,30.3470352,11.48,6.722,0.0,0.0,0.0,-5.164989507341111,0.0,0.0,0.0,0.0,0.0,0.0,0.0,0.0,12,43,0,4,0.87,2025-04-23T17: 14: 21.100+03: 00,72079,new.003.004.
59.9073068,30.3470243,11.484,6.659,0.0,0.0,0.0,-5.159704650366073,0.0,0.0,0.0,0.0,0.0,0.0,0.0,0.0,12,43,0,4,0.87,2025-04-23T17: 14: 21.200+03: 00,72188,new.003.004.
59.9073094,30.3470133,11.49,6.795,0.0,0.0,0.0,-5.152341106251908,0.0,0.0,0.0,0.0,0.0,0.0,0.0,0.0,12,43,0,4,0.87,2025-04-23T17: 14: 21.300+03: 00,72280,new.003.004.
59.907312,30.3470024,11.501,6.787,0.0,0.0,0.0,-5.161244030766331,0.0,0.0,0.0,0.0,0.0,0.0,0.0,0.0,12,43,0,4,0.87,2025-04-23T17: 14: 21.400+03: 00,72384,new.003.004.
59.9073146,30.3469914,11.502,6.818,0.0,0.0,0.0,-5.153334198596292,0.0,0.0,0.0,0.0,0.0,0.0,0.0,0.0,12,43,0,4,0.87,2025-04-23T17: 14: 21.500+03: 00,72478,new.003.004.
59.9073172,30.3469804,11.51,6.82,0.0,0.0,0.0,-5.160156690642339,0.0,0.0,0.0,0.0,0.0,0.0,0.0,0.0,12,43,0,4,0.87,2025-04-23T17: 14: 21.600+03: 00,72577,new.003.004.
59.9073199,30.3469693,11.512,6.896,0.0,0.0,0.0,-5.156793441173745,0.0,0.0,0.0,0.0,0.0,0.0,0.0,0.0,12,43,0,4,0.87,2025-04-23T17: 14: 21.700+03: 00,72677,new.003.004.
